SongID,ArtistLatitude,ArtistLongitude,ArtistName,Title,Year,StarRatings
SONETEJ12A8C13A71E,40.75851,-82.5148,Ohio Express,Sausalito (Is The Place To Go),1994,2
SOLDRBC12A8C139538,37.27188,-119.27023,Throwing Muses,Shark,1996,3
SOOJJXB12A6D4F9F0E,41.88415,-87.63241,The Audition,Lawyers (Album Version),2005,4
SOEFSZD12A58A7DBDE,57.70133,11.96689,Sally Shapiro,Jackie Junior (Junior Boys Remix),2008,4
SOXSZCA12AF729AAD0,52.66097,-8.63261,The Cranberries,Wanted,1993,4
SOVFPCG12A8C1397C4,34.05349,-118.24532,Britney Spears,Born To Make You Happy,1999,4
SOWTQTD12A8AE46807,52.63788,-1.14036,DJ SS,Black,1995,2
SOAXCUV12A8C141B46,51.50632,-0.12714,Swervedriver,Duel,1992,4
SOMQCLD12A58A7D0DD,44.11559,-120.51484,Richmond Fontaine,The Kid From Belmont Street,2007,4
SORWWGU12A8C140E78,51.50632,-0.12714,The Veils,Calliope!,2006,4
SORTQEK12A8C132551,39.04928,-95.67118,Kansas,Loner,1980,3
SOSUMIU12AB017C295,32.61436,-86.68073,Static-X,Wisconsin Death Trip (Album Version),1999,2
SOOEPNY12A6702186F,55.95415,-3.20277,Idlewild,Pleasure And Pain,2005,3
SOWWNMZ12AC468BEA8,40.01574,-105.27924,The String Cheese Incident,Got What He Wanted,1998,3
SOPMDHW12A8C133909,51.89834,-8.47277,Rubyhorse,A Place In The Sun,2004,3
SODTVFT12A8C13EAF4,41.88415,-87.63241,El Dorados,At My Front Door,1955,4
SOAQEEE12A8C144847,37.77916,-122.42005,The Lord Weird Slough Feg,Curse of Humaniti,2003,3
SOGXOUC12A58A78D63,36.05084,-95.7895,Kristin Chenoweth,Daddy,2001,3
SOSDGFA12A8AE47801,38.8991,-77.029,Exit Clov,Working Class Hero (John Lennon),2006,2
SOMLVTX12A8AE49891,34.05349,-118.24532,Britney Spears,Get Naked (I Got A Plan),2007,4
SOCDKAJ12A8AE48EB6,53.41961,-8.24055,Clannad,Almost Seems (Too Late To Turn),1985,4
SOJTKGD12A58A76C57,36.16778,-86.77836,Mat Kearney,Lifeline,2009,4
SOVOYOL12A6D4FB7F9,40.71455,-74.00712,Sean Lennon,Home,1998,3
SOGJNGD12A8C1384E2,51.43558,-2.57518,Tricky,A Song for Yukiko (Album version),2001,4
SOITEZA12A6D4FDCA3,51.16418,10.45415,Die Apokalyptischen Reiter,Himmelskind,2006,3
SOFSKYN12A6701E3D8,62.19845,17.55142,The Soundtrack of Our Lives,Blow My Cool,1996,3
SOZZTNZ12AB017DDFF,38.8991,-77.029,Stacy Lattisaw,Every Drop Of Your Love,1988,2
SOSKVGG12A8C133C6A,55.8578,-4.24251,Shitdisco,I Know Kung Fu (James Ford Edit),2006,2
SOOHEQA12A8C144A02,52.45419,-2.14783,Ned's Atomic Dustbin,You Don't Want To Do That,1992,4
SOIAORE12AC9097BD5,-10.40633,-77.23871,Silkk The Shocker,What Gangstas Do,1998,2
SOFADZW12AB0184732,42.33168,-83.04792,The Contours,You Get Ugly,1963,2
SOMBONU12A8C13EEF2,40.71455,-74.00712,King Missile,The Evil Children (LP Version),1992,3
SOMEQWR12AB0182B2B,49.38426,-84.75627,Ron Sexsmith,Ship Of Fools,2006,3
SOFJMDH12A8C133BED,40.8079,-73.9454,Cam'Ron,What I Gotta Live For,2000,4
SOSTBCJ12A8C13DB1C,25.72898,-80.23742,Eths,La Chair Et Le Sang,2000,4
SODGUZI12A58A7CFB6,34.19451,-90.5651,Earl Hooker,Earl Hooker Blues,1968,3
SOIMMLQ12A8C13EA7B,50.97768,11.02307,Yvonne Catterfeld,Ich lauf einfach los,2006,3
SOJRRGQ12A6D4F7917,50.82821,-0.13449,The Kooks,You Don't Love Me (Acoustic Version),2006,3
SOGQPLV12A8C13CB97,39.31936,-88.45207,Amber Pacific,You're Only Young Once,2007,3
SOJWHDK12A6701E3D1,62.19845,17.55142,The Soundtrack of Our Lives,Chromosome Layer,1996,3
SOXFLJJ12AB01809D7,34.74865,-92.27449,American Princes,Still Not Sick Of You,2008,2
SONUTOJ12A6BD4D405,32.29088,-88.49926,David Ruffin,I've Lost Everything I've Ever Loved,1969,2
SOWBLSJ12A8C13AC01,51.50632,-0.12714,The Clientele,(I Want You) More Than Ever,2000,4
SORUGWA12A58A7F924,38.25486,-85.7664,Sara Martin,Death Sting Me Blues,1993,2
SOGKOIN12A8C1371FD,40.71455,-74.00712,Ashford & Simpson,Bourgie Bourgie (Joe Claussell's Classic Remix),2008,2
SOYAQYS12A8C135D31,37.16793,-95.84502,Tierney Sutton,Something Cool,2002,4
SOFNGIE12A6D4F97AF,42.28474,-83.38348,Insane Clown Posse,F*ck The World,2008,3
SOCLSLO12A8C137815,37.27188,-119.27023,Incubus,Blood On The Ground,2001,4
SOUYYQV12A6D4F6D33,39.80493,-75.22939,Danielson,Five Stars and Two Thumbs Up,2006,3
SOHLYMD12AF72A3252,35.36696,-119.01886,Adema,Pain Inside,2001,4
SOVSHRT12AC468724D,35.26869,-77.5818,Maceo Parker,Shake Everything You Got,2007,3
SOMDRYJ12A6D4F7DCD,32.71568,-117.16172,Cascades,The Last Leaf (LP Version),1963,2
SOTJPQI12A6D4F94E8,34.09834,-118.32674,Barren Cross,A Face In The Dark (Album Version),1989,2
SOGTJGA12A8C1379D5,40.8079,-73.9454,Alicia Keys,The Life,2001,4
SOQBYJI12A8C137768,51.5291,-0.02419,Wiley ft. Frisco & Cookie,Anything Is Possible,2008,2
SOTTNLP12AB0186567,35.06626,-78.88956,Fatback,Keep Your Fingers Out The Jam,1994,2
SOGMUME12A8C143E83,62.19845,17.55142,Sahara Hotnights,If Anyone Matters It'S You,2007,4
SOIFVWZ12A6D4FB60B,51.50632,-0.12714,Max Tundra,Acorns,2002,3
SOEAAUU12AB01889B8,35.40853,-80.1155,Lou Donaldson,Tennessee Waltz,1970,2
SOATKWW12A6D223C0D,-24.9162,133.39311,Flash And The Pan,Where Were You,1982,3
SOELUED12A58A7AF74,45.51228,-73.55439,Oscar Peterson,East of the Sun (And West of the Moon),1995,2
SOJZUGN12A8C135F31,38.82773,-89.54034,Gretchen Wilson,Pocahontas Proud,2004,4
SOZXTKD12A8C13FC43,40.82624,-74.47995,The Dillinger Escape Plan,Sugar Coated Sour,1999,4
SOUEZWO12A8C145B94,45.51179,-122.67563,Blitzen Trapper,Stolen Shoes & a Rifle,2008,4
SOYGYRW12A58A7C13C,50.87566,0.00093,Ed Harcourt,Bittersweetheart,2003,4
SOEWSAQ12A58A7C2B0,37.16793,-95.84502,Kingspade,Check Yo Bitch,2007,3
SOBEGXU12A6D4FAD63,34.05349,-118.24532,Willie Hutch,Out There,1974,3
SOLFNUO12A8C139BAC,32.35248,-89.65535,B Angie B,So Much Love,1991,2
SOFKTYP12A6701C534,41.50471,-81.69074,Nine Inch Nails,The Line Begins To Blur,2005,4
SOWAJYA12A67020673,18.22328,-66.42889,Daddy Yankee,El Muro,2004,3
SOAJWDE12AB0183F2A,32.71568,-117.16172,Switchfoot,Bullet Soul (Album Version),2009,4
SOZJPEC12AB017E137,60.17116,24.93258,Antti Tuisku,Lämpö,2006,2
SOVBCBK12A58A7D330,40.81362,-96.70774,For Against,Coalesced,2003,2
SORWCAQ12A8C13C880,32.61436,-86.68073,Static-X,Light It Up [Bonus Track],2007,2
SORYCVG12AF72A2BF9,51.50632,-0.12714,Girlschool,Breaking The Rules,1995,3
SOLFEIQ12A8C1308E2,37.97457,-122.53247,George Duke,The Way I Feel,1978,2
SOQAKDE12A8C142050,35.17407,-89.97544,Willie Mabon,Got To Have It,1993,3
SOYXCHB12A8C143084,39.74001,-104.99226,Fiction 8,Chaotica,2000,2
SOQDLFB12A6701F110,40.43831,-79.99745,Modey Lemon,The Guest,2003,2
SOAQYLN12A8C13C26B,40.71455,-74.00712,Hem,The Golden Day Is Dying,2006,2
SOCFAQT12A8C142A3A,33.20271,-94.68121,Z.Z. Hill,Suppertime (Home Just Ain't Home At),1971,2
SOEWNHZ12A8C13388F,-34.60852,-58.37354,Richard Shindell,The Kenworth Of My Dreams,1992,3
SOTOIQX12A679C8055,53.34376,-6.24953,Ronan Keating,Joy And Pain,2002,3
SOCXRIE12A6310E111,49.26044,-123.11403,Nickelback,Leader Of Men,1999,2
SOORWNQ12A8C13D03E,53.4796,-2.24881,808 State,Boneyween,1990,3
SOOYBFV12AB018A4F6,52.51607,13.37698,To Rococo Rot,Forwardness,2010,3
SOATBBA12A6D4F5998,45.51179,-122.67563,Pink Martini / Jimmy Scott,Tea For Two,2007,4
SOXBLJL12A8C1305E6,40.79086,-73.96644,Sophie B. Hawkins,Swing From Limb To Limb (My Home Is In Your Jungle),1994,3
SODWUUS12A8C1425C6,36.05084,-95.7895,Kristin Chenoweth,Dear Old Shiz,2008,4
SOTPYVX12A58A7CED1,34.98794,-90.00485,Cory Branan,Walk Around,2009,3
SOYTWPI12A6D4FCBBA,38.8991,-77.029,Restoring Poetry in Music,Learning Tree,2004,3
SOLEPJM12AC4686763,40.19033,-82.66947,American Dog,Mine All Mine,2010,2
SOHVDNS12AB017DF46,39.95227,-75.16237,Jill Scott,Thickness,2001,3
SOWZATD12A6D4F8CF9,-34.8809,-56.16544,Jorge Drexler,El otro engranaje,2006,4
SOXEKKN12A8C143252,38.8235,-75.92381,Dying Fetus,Descend Into Depravity,2009,4
SOXKFBX12A8C13D7E1,34.05349,-118.24532,Dan Bern,Fly Away,2003,2
SOOFXOV12A8C1326B1,41.93825,-93.38989,Rez Band,Waves,1978,3
SOVBOEP12A8C14576D,51.50632,-0.12714,Hot Leg,Kissing In The Wind,2009,3
SOWOFLY12A6701D1C5,42.33168,-83.04792,Rare Earth,Here Comes The Night,1991,3
SOFLIEY12AB0182A0C,43.64856,-79.38533,Great Lake Swimmers,To Leave It Behind (Band Version),2006,3
SOSBIHI12A58A77596,33.98897,-81.07328,Beneath the Massacre,Lithium Overdose,2008,3
SOJOGVM12AB017B3A2,45.46894,9.18103,Exilia,No Colours,2006,3
SOLDGKG12A6D4FA5FF,48.85692,2.34121,Richard Clayderman,White Flag,2006,2
SOJHTAH12AF729FCDA,47.60356,-122.32944,Demon Hunter,The Soldier's Song,2005,4
SOXXGLW12AAFF44C67,38.99792,-105.55096,Gary Wilson,When I Spoke Of Love,2003,2
SOYDPFV12A8C137EDF,62.19845,17.55142,Europe,Love Chaser,1986,4
SOCVVSU12A67ADBEDF,51.50632,-0.12714,All Saints,Headlock,2006,3
SOEFOVS12A81C235C1,40.14323,-74.72671,New London Fire,Somewhere In Between,2006,3
SOAKNNZ12A8C132F4C,51.50632,-0.12714,Marc Bolan / T. Rex,Telegram Sam,1994,2
SOHOJUM12A8C131B68,36.97402,-122.03095,Good Riddance,Up the Affiliates,2003,3
SOLWAIU12A8C139213,37.59791,69.86799,Floyd Cramer,San Antonio Rose,1961,4
SOVDAXY12A8C13600C,53.54622,-113.49037,Cadence Weapon,Unsuccessful Club Nights,2008,3
SOBMARH12A8C1437CA,35.6072,-77.38023,The Avett Brothers,All My Mistakes (US4BW0700133),2007,5
SOZIEDA12A6D4FC376,35.62327,-95.97585,Oscar Pettiford,Willow weep for me,1995,2
SOLAKUF12A6D4F648D,34.05349,-118.24532,Suicidal Tendencies,Suicidal Failure,1983,4
SOXRXVL12A58A7CBD5,40.19033,-82.66947,Mr. Dibbs,All Points Bulletin (album disclaimer),1999,3
SOAZMHQ12AB0187826,26.71438,-80.05269,Tenth Avenue North,You Are More,2010,4
SOCGTBZ12AB017C3F3,-32.83102,147.31906,Sickboy,Take Me On,2008,3
SOMAWGP12A6D4F67F5,56.85147,-101.04893,Tom Cochrane,Just Scream,1995,2
SOXSPMW12AB018570D,51.71012,-3.69781,El Goodo,Don't Worry Marie,2009,2
SONDBJB12A8C13125F,40.71455,-74.00712,Fiona Apple,Never Is A Promise,1996,4
SOXFKDJ12AB017F6BF,49.26044,-123.11403,Swollen Members,Consumption (feat. Aceyalone),1999,3
SOFJOMV12AB017ECE5,54.31392,-2.23218,ILS,Hope & Torture,2007,2
SOSPMOJ12AC907575E,50.45663,4.87137,Enthroned,Rion Riorrim,2010,3
SOOEQQV12AB0185456,40.71455,-74.00712,Riot,Showdown,1982,3
SOXLSQZ12A58A7C0AD,30.33138,-81.6558,Evergreen Terrace,Shattered Remains (Demo '00),2004,3
SOVZZJS12A58A7DC4E,50.44332,-4.93986,Thirteen Senses,Automatic,2005,4
SONBQAI12AB0188F74,47.92408,-97.03203,Tom Brosseau,quiet drink,2005,2
SOVDEKK12A58A7D83A,34.05349,-118.24532,Rock Kills Kid,Don't Want To Stay (Album Version),2006,4
SOCUCBN12A6D4F829A,46.8132,8.22395,The Beauty of Gemina,Trapped,2007,3
SONHYTQ12A8C143090,51.16166,-3.04215,Nik Kershaw,Have A Nice Life,1999,3
SOWTSSN12A58A801D6,39.74001,-104.99226,Dave Grusin / Mike Fisher / Abraham Laboriel / Harvey Mason,Pistolero,1989,3
SOJIAJE12A6D4F680B,33.74831,-84.39111,Kristin Hersh,Costa Rica,1999,3
SOZQWXO12A6D4F7266,27.13844,80.86235,Ananda Shankar,Mamata (Affection) (Album Version),1970,3
SOUCNFV12AB0185406,53.4796,-2.24881,Jega,Stainless Steel Drum,1997,2
SOSOLDK12A8C1371BC,35.472,-97.52033,Barry McGuire,Mr. Man On The Street - Act One,1965,3
SOKZTHA12A8C134830,13.11199,-59.59895,Rihanna,Good Girl Gone Bad,2007,4
SOOFZZI12A58A7E487,48.42831,-123.36451,Frog Eyes,New Soft Motherhood Alliance,2004,3
SODFBYC12AB0188B7F,50.84838,4.34968,Bigod 20,On The Run (Turbo Techno Mix),1992,2
SOZAQPE12A6D4F8B80,40.65507,-73.94888,Oneida,The Adversary,2006,3
SOCQQRC12A8C140C7B,53.54031,-2.11233,Barclay James Harvest,River Of Dreams,1997,2
SOHBJBV12AB018B31A,51.32413,-1.9257,Archie Bronson Outfit,Hunt You Down,2010,3
SOEMYUH12A5891F8A6,-14.24292,-54.38783,CPM22,Depois Do Fim,2005,3
SOQTHMC12AB0185443,34.14723,-118.14426,Dread Zeppelin,Feel Like Makin' Love,1996,2
SOQNGLL12AB018371B,30.2676,-97.74298,The Gourds,Kicks In The Sun,2007,2
SOMCUHF12A8C135DFA,40.71455,-74.00712,Hangar 18,Bakin Soda,2007,2
SOTUYXO12AB018DE34,44.23153,-76.47933,Arrogant Worms,Don't Go Into Politics,1992,3
SOWPVKW12AB01836F2,37.77916,-122.42005,The Brian Jonestown Massacre,New Kind Of Sick,2000,3
SOQLRFA12A8C142292,34.05349,-118.24532,Herb Alpert,Love Is,1979,3
SOACGCI12A6D4FA3BC,32.38012,-86.30063,Tommy Shaw,Somewhere In The Night (LP Version),1987,3
SOPDWIK12AC468BA3D,62.19845,17.55142,Lord Belial,Trumpets Of Doom,2008,3
SOGSDSV12AB0188E47,38.43773,-122.71242,Julie London,Daddy,1957,3
SOLQLPQ12AC468BDEC,39.37413,22.95775,Vangelis,Elsewhere,1988,3
SOQFPPJ12A8C138FD6,-36.36003,144.69832,Mick Harvey,I Have Come To Tell You I'M Going,1995,3
SOSPZIA12A8C1365DA,40.71455,-74.00712,Terence Trent D'Arby,If You Go Before Me,1995,3
SOFQPMG12AB0184F99,46.87278,-113.99623,Tarkio,Sister Nebraska,1998,3
SOFTITU12A6D4F846B,-34.60852,-58.37354,Chris De Burgh,Man On The Line,1984,3
SOCPSJK12AB0181A65,31.1689,-100.07715,Helstar,Rhapsody In Black,1989,4
SOARCMA12AB01830C7,38.62774,-90.19951,Cal Tjader,Serengeti,2003,3
SOIAIXM12A6D4F6E40,59.33217,18.06243,Tiamat,Ten Thousend Tentacles,2003,3
SOMXXET12AC4688DD6,34.05349,-118.24532,Grant Lee Buffalo,Happiness,1994,4
SOEWYTQ12AB018A132,40.65507,-73.94888,Most Precious Blood,Come What May,2001,3
SOTOOJQ12A6D4FC9CD,34.7519,-92.13055,Dee Clark,Bring Back My Heart,2003,2
SOEVNUN12A8C13DE49,40.4203,-3.70577,Maria Dolores Pradera,Luna De Abril,1992,2
SOZGWKV12A8C13BC4F,43.26865,-2.94612,Mocedades,La Barca De Oro,1978,4
SOCPQXO12A58A7D939,45.51228,-73.55439,Ion Dissonance,The Surge,2007,4
SOVIXJS12A8C1384FE,47.60356,-122.32944,Gas Huffer,Action/Adventure,1994,2
SOKTCPW12A8C13DA95,40.74139,-73.71186,Full Blown Chaos,Mojave Red Pt. 1,2007,3
SOYFGJS12A8C13A502,50.80401,-1.08728,Cranes,Beach Mover,1989,3
SOOVYLL12AB017A65B,52.82812,12.07305,Annett Louisan,Die sein,2007,4
SOIRUCW12A8C144EF1,40.71455,-74.00712,Kokolo,Vote Black President (yeah Yeah),2007,2
SOFCPWX12A8C1428FF,60.3907,5.33275,Datarock,In The Red,2009,3
SOEPNNG12AB018E4DF,34.73623,-79.35041,Jazz Liberatorz,Back Packers (feat.Fat Lip),2009,3
SOKCHSE12A8C134EE6,51.50632,-0.12714,Heaven 17,An Electronic Prayer,1996,2
SOBAZES12AB01856F8,51.35502,-0.07929,Kirsty MacColl,Autumngirlsoup,2000,3
SOTMWZG12A8C135C14,41.88415,-87.63241,The Jesus Lizard,And Then The Rain,1998,3
SOTOSWW12A8C131200,32.36503,-88.70307,Ty Herndon,Don't Tell Mama,1996,2
SODZWMJ12A8C14283E,40.10216,-85.67869,Gary Burton,Gorgeous,1991,3
SONGAPO12A67ADBED9,51.50632,-0.12714,All Saints,Rock Steady,2006,4
SOGHSQA12A8C14098E,37.27188,-119.27023,Incubus,Dig,2006,5
SOHTWLT12A8C13CFE1,47.60356,-122.32944,Pearl Jam,Inside Job,2006,4
SOALGFW12A67AE03F9,51.50632,-0.12714,David Bowie,Young Americans (2007 Digital Remaster),1975,2
SOVMKPG12A8C134D08,40.65507,-73.94888,Joan As Police Woman,To Be Loved,2008,4
SOZAJAM12A8AE47995,51.48126,-3.18067,Super Furry Animals,Gathering Moss,1996,4
SOPDKMQ12A6D4FAA0E,39.95227,-75.16237,McCoy Tyner,For Heaven's Sake,1963,3
SOEINBT12A8C1391A8,35.96049,-83.92091,The Louvin Brothers,Blues Stay Away From Me,1992,2
SOTPWBT12A6D4F6688,37.97615,23.73641,Rotting Christ,Visions Of A Blind Order,2004,4
SOLSMVB12A8C132DB6,51.16418,10.45415,Al Gromer Khan,Kublai Tec,1998,2
SOTWJDW12AC468B156,46.73237,-117.00054,Josh Ritter,Southern Pacifica,2010,4
SOBYXAH12AB01884D9,40.71455,-74.00712,The Rascals,People Got To Be Free,1999,4
SOSTIOH12A6D4F58B3,34.05349,-118.24532,Harold Budd,Feral (Album Version),1996,3
SOTZSAQ12A8C132A1A,42.31256,-71.08868,The Breeders,Drivin On 9,1993,4
SOLFDEU12AB0185EE3,39.15093,-123.2079,Robben Ford,Thoughtless,2009,3
SOAJKEM12A8C13E567,40.43831,-79.99745,Black Moth Super Rainbow,Caterpillar House,2005,4
SOOKHHT12AC46860DF,20.68759,-103.35108,La Barranca,El Gran Pez,1997,3
SOQNWTZ12AF72A0BE6,-12.69524,-55.92844,Vanessa Da Mata,Essa Boneca tem Manual,2004,4
SOMIIDZ12A8C137532,42.50382,12.57347,Prem Joshua,Now Is The Time,1998,2
SOGSLBA12A6D4F92C8,30.43883,-90.44116,Irma Thomas,Girl Needs Boy,2004,2
SOMSMVE12AB0188460,42.05665,-87.68659,Caural,Retrospect,2002,3
SOCIAVY12AB0183F71,38.26443,-85.53877,Joan Osborne,Till I Get It Right,2006,3
SOZPBWN12A58A7C3C4,42.88544,-78.87846,Every Time I Die,Depressionista,2007,4
SOSGPTM12A8C1338FB,36.15398,-95.99277,Joe Diffie,My Heart's In Over My Head,1999,2
SOTDJOB12A6D4F6643,-4.03479,21.75627,Papa Wemba,Le Voyageur,1989,3
SOWUKYU12AB018270C,-34.60852,-58.37354,Pedro Aznar,Fotos De Tokyo,1986,2
SOVJZNG12A8C13BED1,59.33217,18.06243,Hell On Wheels,What Is The Influence?,2001,2
SOLLDAJ12A6D4F9B1A,42.31256,-71.08868,Livingston Taylor,Sit On Back,1970,2
SOVMJKS12A6D4F5887,52.0953,1.31388,Roger Eno,Dust At Dawn (the Last Cowboy In The West) (Album Version),1988,2
SOVSEKN12A8C138BF2,29.78772,-95.82333,L.A. Guns,Sleazy Come Easy Go,1989,4
SODRVYY12A6D4FB2CE,37.77916,-122.42005,Western Addiction,It's Funny_ I Don't Feel Like A Winner,2005,3
SOPZPTB12A8C13B8E2,35.36696,-119.01886,Adema,Everyone,2001,5
SORHNQM12AB01864FE,43.04181,-87.90684,The Promise Ring,Electric Pink,2000,3
SOVKFQA12A8C142C94,39.95227,-75.16237,Dexter Wansel,One Million Miles From The Ground,1976,3
SORRWEK12A8C134643,32.77815,-96.7954,Reverend Horton Heat,Baby You Know Who (Album),1991,4
SOPQSXR12AC9072589,62.19845,17.55142,Pelle Carlberg,Hit Song,2005,2
SOQDDBK12A8C13A1D0,34.05349,-118.24532,Stavesacre,Rivers Underneath,1999,3
SOXWWLE12AB017F899,62.19845,17.55142,Pelle Carlberg,I Touched You At The Sound Check,2007,3
SOQFQXX12AB01847D2,48.85692,2.34121,Elliott Murphy,Last of the Rock Stars,2009,2
SOWRZAU12A6D4FD2B5,48.85692,2.34121,Lizzy Mercier Descloux,Sun Jive,2006,3
SOQGGWT12AB0184153,41.51776,-72.75753,Eden's Curse,Signs of Your Life,2008,2
SOYSMKX12AB018589C,31.55379,-90.10785,Byther Smith,What My Mama Told Me,2004,2
SOHAVBI12A6701F442,41.93825,-93.38989,Freestyle,Nära Dig,1998,2
SOFBUAM12A6310D844,53.50846,-2.16337,Puressence,It Doesn't Matter Anymore,1998,3
SODLQHQ12A58A7C76D,38.8991,-77.029,Tuscadero,Angel in a Half Shirt,1995,3
SOYTCZU12A6D4F637E,-37.81753,144.96715,Helen Reddy,Angie Baby,1974,4
SOARKFC12A6D4FCD92,4.65637,-74.11779,Nightfall,I Am Jesus,2003,3
SOFZFAI12A58A79597,34.05349,-118.24532,Shuggie Otis,I Got A Big Fat Mama,2002,2
SORSDFZ12AB0181412,34.05349,-118.24532,Darker My Love,Immediate Undertaking,2008,3
SOAOLEG12A58A787C6,39.12026,-93.19547,Bob James,Rosalie (Album Version),1988,2
SORGGCN12AB0182BBA,34.05349,-118.24532,Britney Spears featuring Lil Kim,"Gimme More (""Kimme More"" Remix)",2008,3
SOQAVIC12AB0181AA5,44.7272,-90.10126,Play Dead,Poison Takes A Hold,1983,3
SOGFUIY12AB01825C2,52.8029,-2.10633,Climax Blues Band,Country Hat,1970,3
SODDBBK12A6D4F918A,41.88415,-87.63241,Curtis Mayfield,Back To The World (LP Version),1973,3
SOISNOV12A8C135AE1,48.85692,2.34121,Lizzy Mercier Descloux,Torso Corso,1979,4
SOWNCZK12A8C13DEA2,40.73716,-74.03097,Yo La Tengo,I Should Have Known Better,2006,4
SONUPQU12AB017F202,54.5958,-5.93494,Van Morrison,Shake And Roll,1992,2
SONFXOF12AB0189EBC,41.88415,-87.63241,Richard Marx,Remember Manhattan,1987,3
SOSBTKU12A8C139C02,52.47859,-1.9086,Halford,Silent Screams,2000,3
SOCNHFO12A8C14009F,40.71455,-74.00712,Rocco,Intro,2003,3
SORDVFU12A67ADC8F2,40.85251,-73.13585,Taking Back Sunday,Error: Operator (Album Version),2006,4
SOJSXJD12A6D4FC1DE,54.90012,-1.40848,Leatherface,Cabbage Case,1989,3
SOCQJRJ12A6BD55764,46.22809,7.35885,Samael,Together,1999,3
SOIDEOJ12A6D4F648E,51.45366,-2.59143,The Blue Aeroplanes,Gunning The Works,1984,2
SOLYHTZ12A58A7B58D,40.14323,-74.72671,Ill Niño,Two (Vaya Con Dios),2003,4
SOZDPMR12A8C13A251,53.79449,-1.54658,Pale Saints,Babymaker,1992,4
SOXEQVQ12AB0184C2A,43.21183,2.3584,Olivia Ruiz,La Fille Du Vent,2005,3
SOFJBJI12AAF3B5636,62.19845,17.55142,Sophie Zelmani,Sorrow,2007,3
SOPJKZG12A6D4FAEE8,37.82245,-85.69091,Special D.,Nothing I Won't Do,2004,3
SOABCSS12A8C133E95,33.89275,35.48527,Gabriel Yared,Don't Ever Leave Me,2003,2
SOCKASA12A67ADF6DD,52.67403,0.95091,The Darkness,Makin' Out,2003,3
SOOQTCY12A6701C4CC,41.88415,-87.63241,The Smashing Pumpkins,Here Is No Why,1995,4
SODMOTR12A8C141416,64.11008,-21.89294,Emiliana Torrini,Dead Things,1999,4
SORHCLO12AC468945C,59.11727,18.19199,Suburban Kids With Biblical Names,Trees And Squirrels,2006,3
SOUIPHX12A6D4F8AB0,16.85576,-69.46854,Mad Professor,Schizophrenic Dub,1986,2
SOJDWYJ12A6D4F7419,-36.55865,145.469,Snog,Empires,1994,3
SOWOZNC12AB0185538,45.4215,-75.69189,Kathleen Edwards,Away,2005,3
SOANVRU12A6D4FC7F1,43.1555,-77.61603,Wendy O. Williams,(Work That Muscle) F**ck That Booty,1986,2
SOGBGRG12AB0187763,52.50208,-0.76588,The Chameleons,Return of the Roughnecks,1985,3
SOSHGQP12AB017C23D,33.95813,-83.37325,Venice is Sinking,CSX,2006,2
SOBGEXY12A8C136090,40.71455,-74.00712,Chris Caffery,Fade Into The X,2005,3
SOEXVMQ12A8C139F58,51.50632,-0.12714,The Sweet,New York Connection,1973,3
SOGIBUY12A6D4F9A7F,34.01156,-118.49229,Shelley Fabares,Billy Boy,1999,3
SOBMOSL12A6D4F650E,51.5313,9.93802,Herbert Grönemeyer,Lied 3 - Du Bist Die,2007,3
SOSPQSS12A6D4FB3E9,34.05349,-118.24532,Eastmountainsouth,Still Running,2003,4
SOPCCMM12AC468B829,37.38769,-6.00181,SFDK,Diario de hotel,2007,3
SOPRVKK12AB017CD89,45.46894,9.18103,Exilia,Your Rain,2006,3
SOXEXSP12A8C137EBB,30.58814,-84.58094,Billy Dean,Tryin' To Hide A Fire In The Dark,1994,3
SOGFHVR12A8C13399D,42.31256,-71.08868,Dick Dale,Peppermint Man,1996,3
SOFSBPB12A8C13C87C,39.73926,-89.50409,Even In Blackouts,Love Cynical Style,2003,2
SOPKSVN12A8AE459A7,40.71455,-74.00712,The Brecker Brothers,Don't Stop The Music,1977,3
SOGAZVJ12A8C13003A,30.2733,-91.89962,Branford Marsalis,Citadel,1987,2
SOGAGEI12A6310DA40,42.33168,-83.04792,Alice Coltrane / The Sai Anantam Ashram Singers,Satya Sai Isha,2004,3
SOMUKZY12AB01882F4,51.91892,19.1343,Vader,The World Made Of Flesh,2000,2
SOWACCZ12A6D4FC437,33.66418,-79.82877,Maxine Brown,All In My Mind,1960,4
SOOBPBZ12A6701D0E5,41.88415,-87.63241,Rotary Connection / Minnie Riperton,Living Alone,1999,3
SOTBTWU12AB017BECC,29.95369,-90.07771,The Subdudes,Do Me A Favor,1996,2
SOZZRCC12A8C1301CA,39.95227,-75.16237,Stanley Clarke,Between Love & Magic,1997,2
SOHCJZY12AB0185D5C,30.33138,-81.6558,Evergreen Terrace,I'm A Bulletproof Tiger,2009,3
SOBTDBX12AB017F717,39.95227,-75.16237,G. Love & Special Sauce,Lay Down The Law,1997,4
SOHZCUS12A8AE45AFC,52.67403,0.95091,The Darkness,Planning Permission,2004,3
SOKUFPX12A8C13F924,25.72898,-80.23742,Raul Malo,You Can Depend On Me,2007,3
SOVAJNL12AB0180596,38.57906,-121.49101,Trash Talk,Shame,2008,4
SOVPEOA12AB0187984,41.88415,-87.63241,Avant,Involve Yourself,2008,4
SOYCZHR12A8C13C64A,18.44377,-66.04975,Don Omar,Cuentale,2006,4
SOZDYQL12A8C136DF1,37.27188,-119.27023,April March,Ideal Standard,1999,3
SOPEIBA12A8C138736,51.44613,0.22581,David Ford,Go To Hell,2007,3
SOQFLXQ12A58A7EFE8,51.50632,-0.12714,Ellie Lawson,Why The Fighting,2005,2
SOKILVD12A8C1337B1,40.71455,-74.00712,The Ark,One Of Us Is Gonna Die Young,2004,4
SOLJZYK12A8AE46F17,51.16418,10.45415,PRIMAL FEAR,Promised Land,1998,3
SOUCIAG12AB0181609,40.14323,-74.72671,Tokyo Rose,New American Saint,2005,3
SODNMGH12A6D4FD547,52.1082,5.32986,Jeckyll & Hyde,The Flipside,2007,3
SOULWMV12A8C13A71C,51.50632,-0.12714,Republica,Picture Me,1996,4
SOWCTNV12A8C1425BB,29.76045,-95.36978,William Basinski,Melancholia XII,2003,3
SOEDPLX12A8C1335E1,36.09962,-80.24109,My Hero Is Me,Grobe Lugner Sind Grobe Zauberer,2008,3
SOFADDO12AB018268B,64.95014,26.06739,Ajattara,Sortajan Kaipuu,2004,3
SOEMTYD12A8C142762,-37.81753,144.96715,Vanessa Amorosi,Perfect,2008,3
SOKIJJG12AC3DF8480,42.31256,-71.08868,Mission Of Burma,Forget Yourself,2009,3
SOZCJDG12AF72A3914,40.71455,-74.00712,Aventura Feat. Wisin & Yandel,Noche De Sexo,2006,3
SORNLYR12AC468E548,33.74831,-84.39111,ARRESTED DEVELOPMENT,Somewhere in North Georgia,2003,2
SOCSUUX12A8C13EFA2,33.67889,-118.00157,Avenged Sevenfold,Remenissions,2003,4
SOWHNMQ12A6D4FD972,50.11204,8.68342,Tankard,Arson,1984,2
SODJDJE12A8C142E91,42.31256,-71.08868,Strangeways,Where Are They Now,1989,3
SODJTKN12A58A77BA9,40.65507,-73.94888,Oneida,History's Great Navigators,2006,3
SODLIZO12A58A790B5,53.40977,-2.97848,Pop Levi,See My Lord,2007,3
SODHURS12AB017B748,43.1763,-76.27503,M.I.K.E.,Turn out the lights,2003,3
SOJYILO12A8C142635,51.4518,7.01062,Kreator,Reconquering the throne,2001,4
SOBNMJX12AB0183FF0,53.34376,-6.24953,Ronan Keating,Suspicious Minds,2009,3
SOYBGFB12A8C13AB07,34.05349,-118.24532,The Geraldine Fibbers,She's A Dog,1997,2
SOLOVIX12A8C13EA0A,34.47326,-119.05505,Uphill Battle,Ripped Off Face,2002,3
SOZHDQT12AB017EC52,35.67048,139.74092,LITE,Solitude,2008,3
SOFXFDZ12A8C13FC2E,42.33168,-83.04792,Inner City,Big Fun (Agoria Remix),2004,2
SOBLYUB12AB0181D4C,64.95014,26.06739,Lackluster,Grind,2000,3
SONJBED12A58A79550,41.88415,-87.63241,Head of Femur,Leader and the Falcon,2008,3
SOHSWGP12AB0185C5C,34.05349,-118.24532,the bird and the bee,Rich Girl,2010,5
SOKIHYK12AB018A283,52.94922,-1.14392,Tindersticks,Factory Girls,2010,3
SODEYYN12AB018AA58,34.05349,-118.24532,Giora Feidman,Nigun for Giora,1995,2
SOPWCHZ12A8C1433D7,43.54535,-96.73128,Nodes Of Ranvier,Oh Yeah_ Well My Daddy Died w/ A Needle In His Arm,2003,2
SOLZHLL12A6310D85C,51.50632,-0.12714,The Rolling Stones,She's So Cold,1980,4
SOPSBRY12AB017EDB4,40.71455,-74.00712,Junior M.A.F.I.A.,Excuse Me,1995,3
SOXQXRR12A6D4F7548,41.88415,-87.63241,Kurt Elling,Too Young To Go Steady,1998,3
SOXNZMC12A5829183A,42.31781,-72.63238,Stephen Kellogg & The Sixers,My Sweet Charade,2005,4
SOUEQSZ12A6D4F9DB4,54.31392,-2.23218,Bellowhead,Death And The Lady,2006,3
SOCLEZY12A58A76725,41.51776,-72.75753,Blood Has Been Shed,House of Fists,2003,2
SOCYMLD12A8C137750,34.05349,-118.24532,Nate Dogg,Never Too Late,1998,3
SOREVZW12A58A79AE0,52.47859,-1.9086,The Moody Blues,Tuesday Afternoon,1968,4
SOUFKVO12AB01811F6,19.4319,-99.13285,Amduscia,Dead or Alive ((god mod rotten skin dance mix)),2005,3
SOSKGXQ12A6D4FBFED,35.21962,-80.01955,Thomas Schumacher,ReGenerate,2006,2
SOMEGJN12A8C136010,39.10644,-84.50469,Ass Ponys,Nothing Starts Today,2001,2
SOWYBOR12A8C1394CE,37.27188,-119.27023,Red Aunts,Palm Tree Swing,1996,2
SOPYAMO12A8C136F33,38.43773,-122.71242,Julie London,When I Grow Too Old To Dream,1966,2
SOLBGFC12A8C145F38,55.8578,-4.24251,Spirea X,Spirea Rising,1991,2
SOINQDJ12A67ADAF2F,59.33217,18.06243,Tiamat,I Am The King (of Dreams),1991,3
SOUUTSY12A6D4F6E3B,51.50632,-0.12714,Renegade Soundwave,Deadly (1990),1990,2
SOSANJI12AB0183047,40.36033,-74.66429,Mary Chapin Carpenter,John Doe No. 24*,1994,3
SOYUZFS12A6D4FC225,-24.9162,133.39311,The Stems,Man With The Golden Heart,1987,2
SOCNBJJ12A58A78F46,43.01437,-88.23546,BoDeans,She'S A Runaway,1986,3
SONCZYW12AC3DF6197,51.42721,7.66379,Obscenity Trial,Yet Another Boring Day,2009,2
SOOSKBF12AB01841CB,42.33168,-83.04792,Black Milk,Pimp Cup,2005,4
SORSEWM12A6D4FCB9B,39.14527,-75.41876,Aidan Baker,The Sea Swells a Bit,2006,4
SOOVYVI12A6D4FA800,51.27172,-0.39535,Twinkle,Micky,2001,2
SOWOYUC12AB018C220,51.50632,-0.12714,The Big Pink,These Arms Of Mine,2009,3
SOQVLID12A6D4FB11A,42.50382,12.57347,Caparezza,La Legge Dell'Ortica,2003,3
SOJEHSW12A8C13CCEE,42.31256,-71.08868,Mission Of Burma,Weatherbox,1982,4
SOYFXHW12A6D4F99AA,50.82821,-0.13449,The Maccabees,Sore Throat,2007,3
SOFSLKT12AB0181D28,42.31256,-71.08868,Helium,Clementine,1997,3
SOICYVO12A58A78D61,41.11366,-73.40765,Horace Silver,Senor Blues (20 Bit Mastering),2005,2
SODHHEG12A58A779FB,34.05349,-118.24532,DJ Babu,Love,2007,3
SONKPMV12AB017BEB7,35.83073,-85.97874,Garrison Starr,Wonderful Thing,2004,3
SOQSXVR12A8C137106,37.16793,-95.84502,The Distillers,Sick Of It All,2002,4
SOLYQPF12AC468AEA3,37.27188,-119.27023,House of Broken Promises,Obey the Snake,2009,2
SOCUXDA12A6D4F8510,36.61442,-86.4421,Steve Miller Band,Jackson-Kent Blues,1970,3
SOKJPYA12A8C138324,39.33498,-82.97041,Woe of Tyrants,Revelations,2007,3
SOVXJDF12A6D4F91FF,38.25486,-85.7664,VHS Or Beta,The Ocean,2004,3
SOJDECM12A8C142512,35.21962,-80.01955,Southern Culture On The Skids,Soul City,1995,3
SOQIDEF12A8C139B23,34.05349,-118.24532,Britney Spears,Don't Go Knockin' On My Door,2000,4
SOQJOVA12A8C13B282,41.90311,12.49576,Fabrizio Moro,Fammi sentire la voce,2007,2
SOVTCCQ12A8C13B83A,33.95813,-83.37325,Dark Meat,Dead Man,2006,2
SOFGHCY12A6D4FB15B,54.49857,-114.99993,Joni Mitchell,Dreamland (LP Version),1977,3
SOBNFEV12AF72ACFDF,44.16104,-77.3819,Avril Lavigne,Naked,2001,4
SOJWQMC12A6D4F8D9C,47.2022,-122.24,Kelly Joe Phelps,Beggar's Oil (Album Version),2002,2
SOFGZGA12A8C139B01,32.74863,-97.32925,Oh_ Sleeper,The Siren's Song,2006,4
SOJPYPL12A58A7A601,34.82353,-89.99726,North Mississippi Allstars,Teasin' Brown,2005,2
SOMRQLU12AC468631B,41.50471,-81.69074,MARC COHN,Providence (LP Version),1998,2
SOTEVIL12A8C1403C3,34.05349,-118.24532,Grant Lee Buffalo,Crooked Dice,1998,3
SOHMSOD12AC468A3B7,51.50632,-0.12714,Robin Trower,I Can't Stand It,1973,3
SOFNLSR12A8C13B302,39.11338,-94.62682,Charlie Parker Quintet,Salt Peanuts,1988,2
SOWVHDH12A6D4F780D,17.15199,-96.20941,Lila Downs,La Cama De Piedra,2006,4
SOHFEGV12A8C142560,42.10125,-72.58929,Staind,Break Away (Album Version),2008,4
SOZKLIQ12A67020AD3,52.88356,-1.97406,The Faders,Get Out Of My Face,2005,2
SOCOZZE12A813568F7,39.95227,-75.16237,G. Love & Special Sauce,Willow Tree,1997,4
SOJJOIP12A6D4FB11E,51.42721,7.66379,Black Messiah,Loki's Tanz,2006,3
SOHQWCO12A8C13895D,52.94922,-1.14392,Alvin Lee,Hear Me Calling,1995,3
SOWUFBK12A8C1446EA,30.33138,-81.6558,Molly Hatchet,Dead And Gone (Redneck Song),1998,3
SODGAVR12A6D4FC598,37.87869,-121.94345,Y&T,Lucy,1990,3
SOTHFUS12AB0181A0D,42.31256,-71.08868,Westbound Train,I Don't Belong Here,2009,3
SOMQWGV12AB0187CD1,55.99574,-3.76654,Robin Guthrie,Freefall,2003,4
SOPLYFG12A8C13A400,37.77916,-122.42005,Suzanne Ciani,Go Gently,1997,4
SOETLFN12AB0189827,52.88356,-1.97406,Steve Porter,Electric Jelly,2005,3
SOOCHZR12A6701BE77,30.42084,-87.21724,Gwen McCrae,Love Without Sex,1976,3
SOHLPBQ12A81C221C3,46.6621,-122.96462,Ralph Towner,Arion,1977,2
SOWOMZE12A8C133434,39.95227,-75.16237,G. Love & Special Sauce,Walk To Slide,1994,4
SOFGTOC12A8C13B2A8,41.5964,-87.78514,Café Tacvba,Esa noche,1994,4
SOPXWXE12A58A7834A,1.32026,103.78871,Paris Hilton,Fightin' Over Me [featuring Fat Joe & Jadakiss] (Album Version),2006,4
SOTWDTO12A58A79D0D,42.81225,-73.94102,Josh Hoge,360 (Album Version),2008,4
SOUXWQT12A6D4FA5D2,-24.9162,133.39311,Gemini Five,Making Love Song,2005,3
SOCYRBD12AB017E7B7,41.38572,2.17005,Tokyo Sex Destruction,You Gotta Do It,2002,3
SOPGBOT12A6701E0BC,47.60356,-122.32944,Soundgarden,Blow Up The Outside World,1996,4
SORGPEU12A58A7CC7B,37.87869,-121.94345,Dekapitator,Run With the Pack,2007,3
SOGKRNP12A81C20860,36.71832,-4.42016,Fran Perea,No me imagino,2005,3
SOPRWFM12A6D4FA1BA,41.52493,-88.08459,Elisabeth Withers,Heartstrings,2007,2
SOKDGBG12A8C1348E4,42.31256,-71.08868,The Breeders,Forced To Drive,2002,4
SOCFRJW12A8C134B6E,40.79086,-73.96644,Sophie B. Hawkins,Mr. Tugboat Hello,1994,3
SOAFKRF12A67020204,34.05349,-118.24532,Chris Clark,Do Right Baby Do Right,1997,3
SOXOTBX12A58A7A3D7,40.71455,-74.00712,Fischerspooner,In A Modern World,2009,4
SOFLRYN12A6D4F6CC1,37.27188,-119.27023,The Accident Experiment,Scream To Breathe (Album),2003,2
SOTLAVN12AB0186A6D,40.71455,-74.00712,Wooden Wand And The Vanishing Voice,Rot On,2005,2
SOSRGNE12A6D4F950D,50.3758,-4.13689,Matthew Jay,Four Minute Rebellion (Explicit) (Album Version),2001,2
SODWZVZ12A8AE49207,38.95774,35.4317,Sezen Aksu,Deliveren,2000,3
SOPFPTW12A8C13E2D8,47.60356,-122.32944,Kinski,Passwords & Alcohol (Album),2007,3
SOTLKAP12AB0181C7E,53.95333,-1.08342,Epidemic,Vision Divine,1992,3
SOYOHMP12A6D4F6244,55.75687,37.6151,Regina Spektor,Daniel Cowman,2002,4
SOKFFIM12A67020426,41.88,-87.77891,Off Broadway,New Little Girl (LP Version),1979,2
SOTNSQX12AF729F5FD,38.72567,-9.15037,Mafalda Veiga,Balançar,2008,3
SOWQGQY12A8C136513,40.71455,-74.00712,Kelley Stoltz,To Speak to the Girl (Album),2008,3
SOCWEVV12A58A7B628,40.71455,-74.00712,Fats Waller,Dinah,1995,3
SOEWNBH12AB018BE9E,55.70622,13.1876,The Radio Dept.,Heaven's On Fire,2010,5
SOIPAGG12A8C1331D8,43.37011,-8.39646,Luz Casal,TU ERES PARA MI,2002,2
SODGRIO12A8C145123,42.33168,-83.04792,The Miracles,Broken Hearted,1994,2
SOGIQWS12A58A7B7A1,52.51607,13.37698,Atari Teenage Riot,Destroy 2000 Years Of Culture,1997,2
SOZOCZI12AB018A2ED,40.04514,-86.01223,Kids In The Way,Blind Behind The Wheel,2005,3
SOICGCQ12A8C14185C,51.27172,-0.39535,Saint Etienne,I Was Born On Christmas Day,1993,3
SOMRGBB12A58A7E0AF,42.31256,-71.08868,Addison Groove Project,Carpal Tunnel,2002,3
SOMXVXO12AB0180AC8,38.04859,-84.50032,Brian Littrell,You Alone,2007,3
SOIRSQE12A6D4FD4CD,46.6621,-122.96462,Ralph Towner,Simone,2001,2
SOXQGSG12A6D4FC223,51.16418,10.45415,Skaos,Ska Skank Down Party,1988,3
SOVWZLF12A8C13F81B,59.33217,18.06243,Concretes,Hey Trouble,2007,3
SOQCBOI12A6D4F741C,39.52739,-119.81341,7 Seconds,Busy Little People (Album Version),1987,3
SOITBXO12AC3DF4E7F,38.26443,-85.53877,Joan Osborne,How Sweet It Is,2002,4
SOCBFPW12AB01849A8,40.71455,-74.00712,Dawn Landes,French,2005,3
SOQVBDS12A8C143867,40.71455,-74.00712,The Strokes,What Ever Happened?,2003,5
SOMGEHY12AB0182F54,34.05349,-118.24532,Mika Miko,The Dress,2006,4
SOBGDCF12AB018C66C,45.51228,-73.55439,The Besnard Lakes,Land Of Living Skies Pt. 2: The Living Skies,2010,4
SOZQBVS12AAF3B5305,40.65507,-73.94888,Mae West,They Call Me Sister Honky Tonk,1996,3
SOPDHUP12A8C13E801,34.05349,-118.24532,Chad Wackerman,Go,1991,3
SORBXRG12A8C13FF83,44.23153,-76.47933,Arrogant Worms,Bottle Of Booze,2004,2
SOYVQSS12A8C1339A0,42.31256,-71.08868,Dick Dale,Gypsy Fire,1996,3
SOAMHUA12A8C13FB40,56.95468,-98.30897,Adrienne Pierce,Downside Of Love,2008,3
SOGGJNR12A8C142D07,51.50632,-0.12714,Metronomy,Nights Out,2008,2
SOUBICA12A6D4F73B1,51.50632,-0.12714,The Puppini Sisters,Tu Vuo Fa L'Americano Recitative,2006,4
SOTEMCQ12A67ADCC37,51.16418,10.45415,Bonfire,S.D.I.,1995,3
SOFLMEN12A58A7822F,19.4319,-99.13285,KALIMBA,Tu Corazón lo sabe (Lat'n Party),2004,2
SOPELTK12A8C139E2D,42.50382,12.57347,Ludovico Einaudi,Passaggio,1996,5
SOHYYPR12A8C13FC0C,41.99112,-88.15849,Vessels,Take It Outside,2006,2
SOYYZXG12A67ADAD8B,51.63319,-0.13058,Rachel Stevens,Je M'Apelle,2005,2
SOAPKJR12AB0188F32,54.90012,-1.40848,Field Music,Clear Water,2010,4
SOMUYVB12AB0185236,-35.30654,149.12656,Frank Gambale,Forgotten But Not Gone,1989,2
SORAPIK12A3F1E9C4A,47.60356,-122.32944,The Spits,Die Die Die,2001,3
SOIPAYH12A6D4F7B42,42.33168,-83.04792,Earl Klugh,Catherine,1978,4
SOAYHIN12A8C13314F,40.7174,-74.04323,The Manhattans,You Send Me,1992,3
SOHWCIR12A8C13C2EA,51.7562,-1.25949,Ride,All I Can See,1990,4
SOXRLLZ12A8C1317AE,52.37312,4.89319,Trijntje Oosterhuis,Painted From Memory,2007,3
SOGGERU12A6310E112,49.26044,-123.11403,Nickelback,Old Enough (Album Version),1999,4
SOQXTRU12A8C143241,34.41925,-119.69887,Motograter,Get Back (Explicit Version),2003,4
SOVPTCA12AB018A318,35.08418,-106.64864,A Hawk And A Hacksaw,Vasalisa Carries A Flaming Skull Through The Forest,2009,3
SOKZLGY12A3F1EA067,52.88356,-1.97406,Onslaught,Skullcrusher,1985,3
SOZVMYF12A6701C0DC,53.4796,-2.24881,Happy Mondays,Rave On (Live at Leeds Utd),1991,3
SORAIAF12A67ADB3FD,49.26044,-123.11403,Strapping Young Lad,Detox,1996,4
SOFHERY12A8C1396B7,35.67048,139.74092,Color Filter,Rainy Morning,2004,2
SOSQQZD12AB01850ED,18.11526,-77.27348,Jackie Edwards,Your Eyes Are Dreaming,1999,2
SOQOXTY12AB0182FF6,40.71455,-74.00712,David Byrne,Monkey Man ( LP Version ),1992,2
SOVSNXK12A6702192D,18.11526,-77.27348,Inner Circle,Ob-La-di-Ob-la-da Extended Dance Mix,1999,4
SOBISGX12A8C1376FE,52.0953,1.31388,Brian Eno,Melancholy Waltz (2005 Digital Remaster),2005,2
SOROUPG12A6D4FCAD1,51.50632,-0.12714,Seafood,This Is Not An Exit,2000,3
SOJKXTW12A8C137810,37.77916,-122.42005,Jolie Holland,Ghost Waltz,2003,3
SOXGOGG12AB0180EF0,40.71455,-74.00712,The Brecker Brothers,Jacknife,1981,3
SODYBCY12AB0183792,51.50632,-0.12714,23 Skidoo,Porno Base,2008,3
SOZJIJI12A8C13CBB0,40.65507,-73.94888,Joan As Police Woman,Holiday,2008,3
SOJGXZS12A81C22789,39.11338,-94.62682,The Beginning Of The End,When She Made Me Promise (LP Version),1971,3
SODNNII12A8C138A87,53.4796,-2.24881,The Hollies,You Better Move On,1964,3
SONESVN12AB01801C6,51.48944,-0.26194,Pete Townshend & Ronnie Lane,Keep Me Turning,1977,3
SOKQSAI12A6D4F7D2C,55.75687,37.6151,Regina Spektor,Another Town,2006,4
SOWAGBK12A8C134EA7,56.95468,-98.30897,Incredible Bongo Band,Apache (Grand Master Flash Remix),2006,3
SOYSNYZ12A8C13B59F,53.82507,-3.02075,Section 25,Sweet Forgiveness,1988,2
SOMXDTA12A6D4FA126,51.50632,-0.12714,Salt Tank,Angels Landing,1997,3
SOZBXAI12AF72A52A1,50.94224,-2.64647,PJ Harvey,The Devil,2007,5
SODIRHC12A8C144444,42.33089,-95.43953,Molotov Solution,Warlords,2009,4
SONOAKM12A8C13B781,41.23987,-73.69807,Kimya Dawson,For Boxer,2004,3
SOQNMVD12A8C134656,42.58807,-87.82365,Jungle Rot,Victims Of Violence,2006,3
SOGOGDI12A6D4FDCB7,39.7666,-94.85607,Coleman Hawkins,Jammin' In Swingville,1991,2
SOSNCTY12A81C21438,49.38426,-84.75627,Josh Gabriel,Summit,2007,3
SOYDOHZ12A6D4FC9BE,40.14323,-74.72671,Chris Garneau,So Far,2007,4
SOFWCZE12AB0180F55,55.59664,13.00156,Billie The Vision & The Dancers,Vamos A Besarnos,2005,3
SOAMCRP12A6D4FA341,40.65507,-73.94888,Oneida,No Label,2002,3
SOSDCZN12A8C13899D,65.0103,25.4735,Uusitalo,Kalajuttuja,2006,3
SOZQOJN12A8AE48CA1,62.19845,17.55142,The Soundtrack of Our Lives,Not Kinda Worried,2005,3
SOFAGVB12AB018B7BB,40.65507,-73.94888,Lena Horne,Why Was I Born,1995,3
SOHLSOI12A6D4F8604,52.51607,13.37698,Audra McDonald,I Wanna Get Married,2006,2
SONCFES12AB0183AF0,45.34481,9.32463,Starship,Wings Of A Lie,1987,3
SOFRQRU12A6D4FB41D,40.71455,-74.00712,Vonda Shepard,Searchin' My Soul (Album Version),1992,2
SOFVLYV12A8C145D8F,51.50632,-0.12714,Us3,Believe In Yourself,2004,3
SOLRMMR12AAF3B33C6,45.51228,-73.55439,Gino Vannelli,Black Cars,1984,4
SOMGKET12A8C13343D,38.83154,-77.28861,Driving East,Come On_ Come On,2008,3
SOEYNEV12AC9075470,-24.9162,133.39311,Triosk,Past Life Romantic,2006,2
SOOSUAR12AB018343E,51.16418,10.45415,Pantha Du Prince,Walden 2,2007,4
SOOHIPH12AB0184427,47.60356,-122.32944,Jennifer Warnes,I Can't Hide,1992,3
SOADALI12A58A7B54B,51.50632,-0.12714,The Wolfgang Press,My Way,1985,2
SOANLPV12A6D4F737B,54.99241,-7.31923,The Divine Comedy,Life On Earth,1998,3
SOKOYZK12A58A7819C,33.86404,-118.39535,98 Mute,Small Minds,2002,2
SOKOYRU12A8C13CA91,42.88544,-78.87846,Brian McKnight / Talib Kweli,She,2005,3
SOOIBUU12AB0185063,46.71067,1.71819,Angelo Debarre,Sweet Noumea,2009,2
SODZIRY12AB017C1BC,41.26069,-95.93995,311,Offbeat Bare Ass,1994,3
SOKZZRT12AB01870AD,40.11727,-88.20449,Braid,Zero Frisco,1995,2
SOZNHOV12AF72A5783,37.5407,-77.43365,Lamb Of God,Forgotten (Lost Angels),2006,4
SOIQSAC12A8C13D6DB,35.67048,139.74092,Electric Eel Shock,Rock & Roll Kills The Blues,2006,3
SOYJZWC12A8AE49C23,53.4796,-2.24881,Robin Gibb,Juliet,1983,4
SOTRKCB12A8C13D50F,45.51179,-122.67563,Kaddisfly,clockwork,2007,3
SOVUZFR12AF72A7A6B,40.71455,-74.00712,The Strokes,Trying Your Luck,2001,5
SOWAWBV12A58A7B2ED,40.99471,-77.60454,Natalie Walker,Sanckens Doll,2006,3
SOYPTYX12A8AE4717B,45.88082,-72.48411,Les Trois Accords,Vraiment Beau,2004,4
SOVMBMS12A8C140642,39.43343,-84.20951,Larry Sparks,Follow The Star,2007,3
SOQTNUA12A58A8014A,35.21962,-80.01955,Southern Culture On The Skids,Lordy_ Lordy,1994,3
SORJCDE12A8C140AFC,41.0981,-80.65079,Tiny Bradshaw,Heavy Juice,2004,2
SOCYRCL12A8C134A0E,45.26232,-69.01249,A Global Threat,Fucking Racist Maggots (Album Version),2000,3
SOZXNVK12A8C13CF0E,44.16104,-77.3819,Avril Lavigne,Too Much To Ask,2002,4
SOSWFSG12A81C2339C,-33.86963,151.20695,Kahvas Jute,Free,1993,2
SOCAOOH12AC4688A23,33.74831,-84.39111,Brainbox,Nashira,1993,2
SOYXOUU12AB018BCF8,39.10295,-94.58306,The Get Up Kids,Your Petty Pretty Things,2009,4
SOQJFOC12A6701F708,52.94922,-1.14392,Tindersticks,Drunk Tank,1993,3
SOLNHUV12AF729DDD2,41.50471,-81.69074,Mushroomhead,The Dream Is Over,2003,5
SOHGAGR12A6310EA83,52.47859,-1.9086,Dexy's Midnight Runners,The Teams That Meet In Caffs (2000 Digital Remaster),1980,3
SOYANMY12AB0189080,40.82186,14.12208,Corde Oblique,Flower Bud,2009,3
SOZHSAG12A6D4F9CA8,51.31476,-0.56623,The Jam,The Eton Rifles,1979,3
SOPWAMP12A58A7A239,34.05349,-118.24532,Harold Budd,Algebra Of Darkness (Album Version),1988,4
SOQSLWN12A8C14576E,53.79449,-1.54658,Pale Saints,One Blue Hill (Demo),1993,2
SOWAMWE12A8C13DA05,53.74319,-0.34592,Tracey Thorn,Goodbye Joe,1982,3
SOKDWBE12A8C138B07,55.74138,12.57885,Mew,She Spider,2003,4
SORQPRY12AB018D125,44.97903,-93.26493,Mouthful of Bees,The Magic Of Numbers,2009,2
SOVGWYC12AB017BFF7,55.8578,-4.24251,Cosmic Rough Riders,Blind,2003,2
SOXVRYP12A8C140329,33.74831,-84.39111,Confederate Railroad,Toss A Little Bone (Party Mix),2000,2
SOAMGAL12A8C131C8D,41.88415,-87.63241,Terry Callier,Oh Dear_ What Can The Matter Be,1968,3
SOFILWW12A8C13CDFF,40.71455,-74.00712,Polyrhythm Addicts,Zonin' Out,2007,2
SOMWCKO12AB017E792,40.85715,-73.85678,Yerba Buena,Fever,2005,2
SOWPPHT12AC468884D,40.71455,-74.00712,Sheila On 7,SAMPAI KAPAN,2008,3
SOIUHZN12AB01855CF,35.25082,-91.74015,The Gossip,(Take Back) The Revolution,2002,4
SOFZRWU12A6D4FC9B3,43.1555,-77.61603,Wendy O. Williams,Bad Girl,1986,2
SODMMKB12A8C136216,51.16418,10.45415,Helge Schneider,Dolores,2005,2
SOVCNHZ12AB0180982,51.96301,7.61781,Tanita Tikaram,Thursday's Child,1990,3
SOYVXVL12A6701F846,53.34376,-6.24953,Ronan Keating,In This Life,2000,3
SOCKANJ12AB0180426,37.77916,-122.42005,Vienna Teng,Between,2002,3
SOUKYBX12AF72AB35E,35.2225,-80.83754,Cece Winans,Life,1998,2
SOWLTOC12A6701E1B4,37.80506,-122.27302,Del Tha Funkee Homosapien,Eye Examination,1992,3
SOTXRTW12A6D4F81F0,49.25953,2.47547,Alliance Ethnik,Non Stop,1995,3
SOKXZYE12A8C133593,34.14632,-118.24802,Elvin Bishop,The Things That I Used To Do,1994,2
SOOIVBS12A6D4F804A,51.50632,-0.12714,Erasure,March On Down The Line (Remix),1986,2
SOYUQHL12AB01845F7,39.2794,-74.57555,Walter Trout,Victor the Cajun,1992,2
SOWDIMP12A8C13E319,47.60356,-122.32944,Judy Collins,Tear Down The Walls,1964,3
SODHDBI12A8C142597,62.19845,17.55142,Rupesh Cartel,About Denial,2007,3
SOWABXF12A8C140622,55.67631,12.56935,Outlandish,Look Into My Eyes,2005,4
SODTBSC12A670207EA,35.45808,-79.93087,Earl Scruggs,I Found Love,2001,2
SOWZOUM12A8C138B41,55.82046,-4.02263,The Primary 5,Off Course,2007,2
SOORLME12A8C1318C1,41.88415,-87.63241,Alice Peacock,Alabama Boy,2002,3
SOEZGZQ12A67AE0D5E,40.79781,-81.37157,Macy Gray,Shoo Be Doo,2007,4
SOSWNYR12A8C13AED3,44.60659,-79.41823,Gordon Lightfoot,May I,1968,3
SOKNBNF12A8C13B8AC,40.10216,-85.67869,Gary Burton,Decarísimo,1998,3
SOKOAYF12AB0183B82,44.13378,10.01671,Toto Cutugno,Soli,1983,3
SOTSZWX12AB0181406,34.05349,-118.24532,Darker My Love,Waves,2008,4
SOZSBSM12A8C139F76,48.07272,-0.77304,Electronicat,Dans Les Bois,2005,2
SOXXSSG12A67020CB4,53.4796,-2.24881,Dust Junkys,What Time Is It?,1998,2
SOAIBLQ12A8C13D99D,62.19845,17.55142,Alcazar,Don't You Want Me,2001,4
SOVBGWB12A6D4F85BA,36.16778,-86.77836,Big & Rich,Filthy Rich (Album Version),2005,3
SOACMAQ12A8C131F42,38.62774,-90.19951,Erin Bode,If It's Magic,2004,3
SODFMFM12AB0183821,41.88415,-87.63241,Kill Hannah,Promise Me,2009,4
SOAHGCS12AB0188815,45.28303,18.80032,Majke,Daj Mi,1998,3
SOTPMXE12A6D4F953C,37.45469,-122.1779,Secondhand Serenade,Awake,2007,4
SOJHAJE12A6D4F6DE7,62.19845,17.55142,Dream Evil,Live A Lie,2003,4
SOYXYMD12A6701DC87,53.4796,-2.24881,Nine Black Alps,Cosmopolitan,2004,4
SOOOPNI12A6D4FB414,46.87591,-96.78176,Bobby Vee,Raining In My Heart,1998,3
SOBZJHN12A6D4F7CFC,-43.53131,172.6373,Hayley Westenra,Wuthering Heights,2003,4
SONLOAW12A8C137950,54.49857,-114.99993,Joni Mitchell,The Dry Cleaner From Des Moines  (LP Version),1979,3
SONVHQV12AB018C0B1,34.05349,-118.24532,L7,Freak Magnet,1992,3
SOGACDM12A8C13B127,34.19767,-101.69814,Jennifer Brown,Trembling,1998,2
SOXIFMC12AB0181F7D,43.64856,-79.38533,Johannes Linstead,Amazonico,1999,2
SOEGLPJ12AB017A412,50.94165,6.95505,Klaas,Our Own Way,2009,4
SOYOSUV12A8C13FCBD,32.71568,-117.16172,Destroy The Runner,On Falling Leaf,2008,4
SOXLCVX12A8C14058B,20.68759,-103.35108,La Barranca,Don Julio,1999,3
SOXXBIK12A6D4F8339,38.25486,-85.7664,By The Grace Of God,Boy And The River (Album Version),1997,2
SOCUSCQ12AB0183076,41.82387,-71.41199,Lightning Bolt,Fleeing the Valley of Whirling Knives,1999,3
SOADKCV12AB0183BC4,-22.97673,-43.19508,Milton Nascimento,No Analices,1990,2
SOIFDCO12A8C139299,40.65507,-73.94888,Lou Reed,No Money Down,1986,3
SOGHGER12A58A7D85D,53.82507,-3.02075,Section 25,Carcrash,1988,2
SOZIZYT12A58A7D815,50.91552,0.48883,Keane,Atlantic,2006,4
SOSNIMF12AB01801A3,38.8991,-77.029,Grayskul,Sand Dolls (Produced by Coley Cole of Lost and Found Generation),2004,2
SOOVKGO12A6D4FC39B,40.73716,-74.03097,Yo La Tengo,Pablo And Andrea,1995,4
SOHDZUO12AC4687A69,-14.24292,-54.38783,Azymuth,Caititu,2008,2
SOKERDE12A6D4F8318,41.36149,-74.27362,Bill Perry,Love Scars,1996,3
SOPYRRE12AB018B362,42.65356,-71.13649,Piebald,in like a lamb and out like a lion,1997,3
SOFQAMU12AB018F6A6,35.14968,-90.04892,Big Star,Country Morn,2009,3
SOGHKBQ12AC468A416,64.96394,-19.02116,Singapore Sling,i hate you,2006,2
SOQMEUU12A8C13B99A,27.9758,-81.54106,God Module,Inside Out,2005,4
SODCPGI12A8C137FF6,37.77916,-122.42005,Jake Holmes,Penny's,2004,3
SOUKSPO12A8C13B180,52.47859,-1.9086,Al Campbell,Going the Wrong Way,2001,3
SORJTOU12A8BEEEEC2,53.79449,-1.54658,The Cassandra Complex,One Millionth Happy Customer (Ebm Mix),1994,2
SOMQGCT12A58A78E0F,40.71455,-74.00712,Ram Jam,Saturday Night,1978,3
SOPAUYT12AB0180462,51.50632,-0.12714,The Wolfgang Press,On The Hill,1983,3
SOVXQUG12A6D4FD87D,39.74001,-104.99226,Rivulets,To Be Home,2006,3
SODXWNS12A8C13EDBB,40.73716,-74.03097,Yo La Tengo,Double Dare,1993,4
SOXCNEK12A8C1425E7,51.91892,19.1343,Vader,Fear Of Napalm,1996,4
SOPGQIH12A58A78A35,-33.86963,151.20695,The Cruel Sea,Strange Thing,1995,2
SOTSVAT12AB0187179,40.73197,-74.17418,Faye Adams,Im Going To Leave You,1961,1
SOMCJRR12A8C1361F2,34.28946,-118.71766,Pulley,Darkside,1999,4
SORJUVK12AF72A84E7,34.05349,-118.24532,The Whispers,Forever Lover,1990,3
SOWDZGU12AC9E15697,51.54038,0.70516,Get Cape. Wear Cape. Fly,Interlude,2008,2
SOLLAVB12A8C13A373,37.4876,139.83829,Detroit7,Kono Itoshiki Sekai,2006,2
SOECFKJ12A6D4F9751,35.67048,139.74092,Yoko Ono,Open Your Box (The Dub The Voice),2001,3
SOVQOGB12AB018BED5,44.69559,10.64121,Raw Power,Power,1983,3
SOZVONK12A6BD529DA,41.48352,-74.41552,Joey Heatherton,Gone,2001,2
SOZGZZH12AB01818B2,40.71455,-74.00712,Kokolo,The Popcorn,2009,2
SOMSQVP12A8C1374CB,33.74172,-83.85361,Barbecue Bob,Crooked Woman Blues,1991,3
SOALHFM12A8C141486,40.71455,-74.00712,The Ronettes,I Want A Boy,1965,3
SOAEEGL12A81C2181E,38.62774,-90.19951,Cal Tjader,September Song,1956,3
SOOVOWS12A81C236F5,51.80143,-0.20573,Adam Freeland,Silverlake Pills,2007,3
SOIWYCX12A8AE477AD,43.6843,-79.75873,The Hidden Cameras,Steal All You Can Motherfucker,2001,3
SOGBNHA12A6D4FC0B5,34.69934,-79.88483,Kenny Clarke,One Bass Hit,1957,2
SOZCABT12A6D2282A7,64.55653,12.66538,Old Man's Child,Phantoms Of Mortem Tales,2000,3
SOYXRQX12A8C14474A,51.04521,-114.06317,Chad Vangaalen,Frozen Energon,2008,4
SOHKBMX12A6D4F8D99,34.05349,-118.24532,The Ditty Bops,Bye Bye Love (Album Version),2006,3
SOLGSVO12AB01821DF,39.95227,-75.16237,Son House,Special Rider Blues,1962,4
SOSEEJC12A58A7D33E,52.88356,-1.97406,Saxon,Motorcycle Man (2009 Digital Remaster),1980,2
SORBDDK12AC468BC41,34.16788,-111.9307,Alter Der Ruine,When Machines Cry,2006,2
SOPQLTZ12AB017D9F3,44.04992,-123.08854,Govi,Inner Sky,1993,3
SODHNTS12A8AE46B96,51.50632,-0.12714,Psapp,Sad Song,2007,3
SONVCRM12A6D4F66F5,51.48224,-2.78071,Portishead,Strangers,1994,3
SOKCCTK12A8C138BB4,52.88356,-1.97406,Living In A Box,Love Is The Art,1987,3
SOIHLKC12A6D4FAA3F,42.33168,-83.04792,Alice Coltrane,Oceanic Beloved,1998,4
SOKBXOY12AB0182E82,-41.28054,174.76714,Brooke Fraser,Seeds,2006,4
SONROBX12A8C13F037,34.23033,-118.23944,Nural,Not Guilty,2005,3
SOUIPNT12AB0184070,40.63955,22.93707,G Pal,Krevadence,2001,3
SOEJVKX12A67ADBF2D,51.50632,-0.12714,Dub Pistols feat. Rodney P & Terry Hall,Peaches,2007,3
SOSNKYU12AF729FF70,39.90348,-83.43001,Bouncing Souls,True Believers,2001,4
SODKMLO12A8C133BE7,41.88415,-87.63241,Lalah Hathaway,For Always,2008,4
SOWXQLW12A8C134002,40.71455,-74.00712,Special EFX,She Will Remember,1999,3
SOSBPJB12A6D4FC41F,40.71455,-74.00712,Chic,"Dance_ Dance_ Dance (Yowsah_ Yowsah_ Yowsah) (LP/12"" Version)",1977,3
SOHDRBG12A8C1423A2,51.16166,-3.04215,Nik Kershaw,Stick Around,1999,3
SOAKAXS12A8C13188D,34.74243,-87.66771,Shenandoah,The Moon Over Georgia,1990,4
SOWNMEY12A8C136EDF,60.17116,24.93258,Apocalyptica,Sad But True,1996,4
SOQXDYO12A6D4F86BA,42.33168,-83.04792,Rare Earth,Nice To Be With You,1971,2
SOIQJIY12A6D4F7F61,42.33168,-83.04792,Alice Coltrane,Sivaya (Album Version),2002,3
SOCILRQ12A58A7BF49,44.23153,-76.47933,Arrogant Worms,Overture,2003,2
SODYSDM12A8C13D8F9,51.48126,-3.18067,Cerys Matthews,Blue Light Alarm,2006,2
SOQXGUJ12AB0189E9B,38.8991,-77.029,While,Haze-3,2002,3
SOASLNW12A58A7ABEC,43.0026,-83.7826,Grand Funk Railroad,We're An American Band (Live) (24-Bit Remastered 02) (2003 Digital Remaster),1975,2
SOJNXOJ12A8C14300C,59.27074,15.21751,Truckfighters,Chameleon,2007,3
SOAQSIH12A8C132E0D,41.88415,-87.63241,Screeching Weasel,You Blister My Paint,1996,3
SORSLUI12A8C1327BF,40.71455,-74.00712,Mariah Carey,When I Saw You,1995,3
SOMGYMF12A6D4FAA30,18.45462,-66.06462,Ismael Rivera,Dime porque,1992,3
SOVUVAY12A6D4F9A50,54.90012,-1.40848,The Futureheads,Burnt,2006,3
SOGLIVN12A58A7A8E2,27.9758,-81.54106,Diamond D,Get Up,2005,4
SOATZOB12AB0189602,59.33217,18.06243,Katatonia,Idle Blood (Linje 14),2010,5
SOLTROQ12A8C13ABEC,51.50632,-0.12714,The Clientele,Monday's Rain,2000,4
SOKZOLG12A6D4F6975,-23.56287,-46.65466,Eliane Elias,Introduction #1/If I Should Lose You,2000,2
SOHYNAS12AB0185923,33.90094,-84.279,Atlanta Rhythm Section,Angel (what in the World's Come Over Us),1974,3
SOSXQNX12AAF3B39BF,31.1689,-100.07715,Ghost of the Russian Empire,Mandroid,2008,2
SORELGY12AB018333F,40.1142,-88.2435,REO Speedwagon,Dangerous Combination,2007,2
SOHYOBG12A8C144DA0,40.71455,-74.00712,Jesper Kyd,Sanitarium,2000,3
SOOWUSH12A8C13247B,40.21388,-85.70948,Sam & Dave,Broke Down Piece Of Man,1990,4
SOGDQNF12AB0186999,42.31256,-71.08868,Open Hand,Tough Girl,2004,4
SOKJKCS12AB017FB1C,47.60356,-122.32944,Jennifer Warnes,Way Down Deep,1992,3
SOKCNFS12AB01888D4,-34.60852,-58.37354,Bersuit Vergarabat,Sin son,1993,2
SOWFJTY12A58A79554,52.88356,-1.97406,Dif Juz,Hu,1981,3
SOGADXW12A8C137A4D,54.31407,-2.23001,Trapeze,Way Back To The Bone,1998,3
SODBWDK12A6D4F95A6,42.31256,-71.08868,The Click Five,Catch Your Wave (Live Version),2005,2
SOICJHV12A6D4F91E6,34.05349,-118.24532,Linkin Park,Lying From You [Live LP Underground Tour 2003],2003,4
SOTZACD12AB018B49F,23.1168,-82.38859,Rolando Alphonso,Payton Place,2001,2
SORTQQT12A6D4FADF7,40.71455,-74.00712,Chavez,The Flaming Gong,1995,3
SOJFOCF12A8C13590B,38.04859,-84.50032,The Scourge Of The Sea,Hookers,2006,2
SOMKTTJ12A8C130B16,40.71455,-74.00712,Groove Theory,Didja Know,1995,4
SOHMTOD12AB0189B9F,62.19845,17.55142,bathory,One Rode To Asa Bay,1990,4
SOVHBKK12A8C1316B9,22.81751,-82.7603,Arturo Sandoval,Little Jazz,2003,2
SOCNXOO12A8C139A7F,40.65507,-73.94888,Mae West,All Of Me,2006,3
SOEZXPW12AB0181BBE,41.82387,-71.41199,Roomful Of Blues,You Give Me Nothing But The Blues,2001,2
SORWAQZ12AB0182D72,36.99462,-86.44558,Nappy Roots,Set It Out,2002,3
SOBSYDI12A8C139FB6,37.77916,-122.42005,Tuck & Patti,Sitting In Limbo,1991,3
SOIZIHV12A8C13AFFA,55.67631,12.56935,Efterklang,Frida Found A Friend,2007,4
SOVUMGM12AC9075763,50.45663,4.87137,Enthroned,Ornament Of Grace,2010,3
SOZUVNF12A58A79E1A,36.15398,-95.99277,David Cook,Bar-ba-sol,2008,4
SOFSRWM12A8C143ECC,37.77916,-122.42005,From Bubblegum To Sky,Downtown or Up?,2008,2
SOWHFRQ12AC468A390,49.01037,8.4092,Across the Border,The seed,2009,2
SOYLHAY12AB017BE58,52.47859,-1.9086,Plone,Press A Key,1997,3
SOBSEGD12A6D4F9335,40.43831,-79.99745,Erroll Garner,When A Gypsy Makes His Violin Cry,1993,2
SOQDFYP12A6D4F6489,51.45366,-2.59143,The Blue Aeroplanes,Action Painting,1988,2
SOTXWAJ12A8AE459FD,59.85845,17.64405,Britta Persson,At 7,2008,3
SOBVAYP12AB0182485,-33.86963,151.20695,Two Dollar Pistols,Without Goodbye,2004,2
SODAJQI12AB01854D1,52.51607,13.37698,Alphaville,Beautiful Girl (Piano Piece),1999,2
SOCBCMW12A81C23284,42.33168,-83.04792,The Hentchmen,Half Step Away,2006,3
SOONZLR12A8C142BF5,36.16778,-86.77836,Lambchop,I'm Thinking Of A Number,2008,4
SOKCNSR12AB01896DE,35.85683,129.2459,Shout Out Out Out Out,Reintegration Time,2009,3
SOQYQBH12AB01806AC,45.46894,9.18103,Exilia,Rise When You Fall,2004,3
SOBXOSW12A6D4FAA65,47.50622,19.06482,Elek Bacsik,Blue Rondo A La Turk,1998,3
SOSLIPZ12AB017D662,35.30914,-98.52102,Ryan Lindsey,White Paper Beds,2006,2
SOSMPHT12A8AE49AF4,37.16793,-95.84502,Hard 'n Phirm,Funkhauser,2005,3
SOBRLCC12A8C1380B9,44.97903,-93.26493,After The Burial,Drifts,2008,4
SOAFPCV12A6D4F74BD,31.15509,-95.96653,Albert Collins,I'm Beginning To Wonder,1991,3
SOVIEFH12A8C134A80,37.77916,-122.42005,Romeo Void,One Thousand Shadows,1992,3
SOSEAAN12AF72AD190,49.69475,21.76223,Decapitated,The First Damned,1998,4
SOCYJBE12AC4686E45,18.01571,-76.79731,Sugar Minott,Two Timer - Timer Dub (Album),1984,2
SOFBQOV12A6D4F5FD7,39.74023,-75.55084,Clifford Brown,Easy Living,1986,2
SOOVTTL12AB017BB5C,57.70133,11.96689,Evergrey,Blinded,2003,3
SODBWVB12AB017A54A,43.65914,-70.25665,Christy Moore,America You Are Not The World,2006,2
SOWZYCM12AB0183701,40.71455,-74.00712,John Brown's Body,Original Man,2001,3
SOSOTRB12A67AD827B,41.88415,-87.63241,Avant / Nicole Scherzinger,Lie About Us,2006,5
SOHZBHQ12AB018A7DE,32.20049,-94.35887,Jim Reeves,You Belong To Me,1991,2
SOIVOIS12A8C138771,37.77916,-122.42005,Jolie Holland,A Crush In The Ghetto (Album Version),2006,2
SOEIYAM12A8C137A89,19.4319,-99.13285,Edgar Oceransky,Juro,2004,3
SOXRUEQ12A8C141354,29.76045,-95.36978,Jennifer Holliday,I Am Changing,1996,3
SOAZHOD12A6D4F70B5,-32.89123,-68.83955,Los Enanitos Verdes,Creo,1994,2
SOSJAOS12A8C13DDDC,41.70671,-73.92937,Hopewell,Tree,2007,2
SOLKYCI12AB01887B0,42.31256,-71.08868,The Breeders,Hellbound,1990,4
SOVJVGF12A8C13EDFE,43.64856,-79.38533,Cancer Bats,Bastard's Waltz,2008,4
SOOAJNM12A8C13FBEA,34.05349,-118.24532,Tenacious D,Baby,2006,4
SOENLVR12A6310E04B,40.71455,-74.00712,Marcy Playground,Secret Squirrel,1999,3
SOVKXBB12A6D4FC229,-24.9162,133.39311,The Stems,Running Around,1987,2
SOHHUCO12A58A7A2C7,43.32245,-3.12282,Julian Lennon,Jesse,1984,3
SOJAVCA12AB0187F07,39.95227,-75.16237,The Jai-Alai Savant,Scarlett Johansson Why Don't You Love Me,2005,3
SORPEJN12AC392752D,46.8132,8.22395,The Beauty of Gemina,La Mer - Rythme Eternel,2010,2
SOIKOIB12A8C13CB25,40.14323,-74.72671,Bigwig,Pro Life Taker,1997,3
SONPDDK12AB01832D5,27.9758,-81.54106,Savatage,There in the silence,2001,4
SONNQIA12A8C13ADEC,39.73926,-89.50409,Cruciform Injection,Every Mans Sin,2006,2
SOKALBS12A6310E146,52.47859,-1.9086,Bentley Rhythm Ace,Bentley's Gonna Sort You Out,1996,4
SORFSHQ12A8C1419B6,40.86189,-74.49641,Neal Casal,The Cold & The Darkness,2009,2
SOEOOGW12AC468C943,29.95369,-90.07771,Lee Dorsey,Everything I Do Gonh Be Funky,2001,3
SOMHWBR12A6D4F7578,55.8578,-4.24251,Midge Ure,The Leaving (So Long),1988,2
SOGKIKJ12A6310E852,37.27188,-119.27023,The Disposable Heroes Of Hiphoprisy,Water Pistol Man,1992,3
SOBUVUD12A8C137331,37.77916,-122.42005,Paul Desmond,Ill Wind (You're Blowin' Me No Good),2002,2
SOJJOSJ12A6D4F6ECA,48.85692,2.34121,Motorbass,Ezio,1996,3
SOGJDJX12A58A7AE87,52.88356,-1.97406,The Count Bishops,Route 66,1977,2
SOUHNEU12A58A7DAE3,40.57885,-74.21956,The Smithereens,Strangers When We Meet,1986,3
SOJZMXX12A8C1374DF,33.74172,-83.85361,Barbecue Bob,Waycross Georgia Blues,1991,2
SONABZE12AB01806E1,51.73569,0.47791,Squarepusher,Seb-1.04,2009,3
SOTQBKC12A8C13E961,40.82624,-74.47995,The Dillinger Escape Plan,Baby's First Coffin,2003,4
SOTSKFP12A6701E682,38.40901,-121.36562,Billy Corgan,Walking Shade (Album Version),2005,2
SOZLCBW12AB018302A,40.19033,-82.66947,Conya Doss,Nevermind,2006,4
SOADFMR12A6701FB5F,50.90994,-1.40732,Craig David,All The Way (Single Version),2005,4
SONWEOA12A58A7B400,41.88415,-87.63241,Wilco,Solitaire,2009,4
SOWERHG12A8C13E812,37.77916,-122.42005,Jetboy,Groove Tube,1990,2
SOIEMYI12A8C142384,52.51607,13.37698,Rosenstolz,Strahlende Nächte,1994,3
SORHUWR12AB0182E1E,47.60356,-122.32944,Demon Hunter,Infected,2002,4
SODRGFK12A58A7C2B5,41.88415,-87.63241,Tortoise,C.T.A.,2002,4
SOLAJXL12A6D4F89F6,30.4951,-91.25276,Slim Harpo,Baby Scratch My Back,1971,3
SOBJJLZ12AB018027C,35.78551,-78.64267,Chatham County Line,Lonesome in Caroline,2006,4
SOZAJVT12A8C13853E,48.20254,16.3688,Sofa Surfers,One Direction,2005,3
SOTBVMH12A8C135E0E,34.05349,-118.24532,Sony Wonder,Blackbird,2001,3
SOJGUCG12AAF3B2869,40.65507,-73.94888,Killah Priest,A Crying Heart,2008,3
SOIKMGA12AB018867C,40.4203,-3.70577,El Canto del Loco,Zapatillas,2005,4
SOJAVZS12A8C13C1B3,20.68759,-103.35108,La Barranca,Vuelta interminable,1999,2
SOPVBLV12A8C134179,45.19398,5.732,Miss Kittin,I Come.Com,2004,4
SOQSMHB12A8AE48C94,53.50807,-8.42945,Luka Bloom,As I Waved Goodbye,2001,2
SOPIZUZ12A8C13C266,44.97903,-93.26493,Cloud Cult,Story of the Grandson of Jesus,2008,3
SOJLAGH12A8C1398B2,34.05464,-117.75002,Tom Waits,You Can Never Hold Back Spring,2005,4
SORGSCK12A6310E81C,51.43558,-2.57518,Tricky,Broken Homes,1998,4
SOFSOWI12A8C13F3CF,43.88979,8.03889,Fausto Papetti,A Whiter Shade Of Pale,1996,3
SOHTEJN12A58A783FF,51.11655,-0.18703,The Cure,Just Like Heaven,1987,4
SOGHBKI12A8C13F967,-27.46888,153.02283,Darren Hayes,Step Into The Light,2007,3
SOFBZMZ12AF72A60AA,42.50172,12.88512,Lucio Battisti,Ancora Tu,1976,4
SOKHZUS12A67020905,34.05349,-118.24532,Ry Cooder,Ejercito Militar,2005,3
SOGJUBZ12A8C141B2D,56.27609,9.51695,Pretty Maids,Credit Card Lover,1992,3
SOBJIUY12A8C135187,34.05349,-118.24532,Joe Zawinul,Waiting for the Rain,1986,3
SOLGQMX12A67AE0EFA,41.51776,-72.75753,Delirious?,Deeper,1997,3
SOAUXKN12A58A7C115,46.44231,-93.36586,The Blue Jays,Lover's Island,1961,3
SOIEIJN12A58A7E14A,34.05349,-118.24532,En Vogue,Whatever (LP Version),2001,3
SOWXPZR12A8C138652,40.71455,-74.00712,Assembly of Dust,Harrower,2004,3
SOFVSAH12A6D4FB3C5,37.68698,-97.33558,Joe Walsh,All Night Laundry Mat Blues,1974,3
SORASVX12A8C13993F,37.27188,-119.27023,Throwing Muses,Dizzy (remix),1989,2
SOIGPRF12A6D4FC4A2,40.65507,-73.94888,Lil' Kim,She Don't Love You,2000,4
SOVLMYA12AAF3B2650,44.81187,20.46414,Ana Popovic,Between Our Worlds,2007,3
SOYYIHQ12AB017FD9E,29.95369,-90.07771,Jean Knight,Take Him (You Can Have My Man),1971,3
SOJLWXM12A58A7EDF7,33.6671,-117.76505,Eighteen Visions,The Notes Of My Reflection,2002,3
SOHSDKY12AAF3B20DF,31.57182,-97.1495,Roy Hargrove,Devil Eyes,2006,4
SONHGDN12AB0186A63,40.71455,-74.00712,Doug MacLeod,Devilment Doin' Woman,2002,2
SOGMDAL12A58A7DB2A,27.94653,-82.45927,Windsor For The Derby,Robin Robinette,2008,2
SOEHGFB12A6D4F89CA,33.59233,-101.85587,Joe Ely,Cool Rockin' Loretta,2002,4
SOPVHEE12AB0184051,51.50632,-0.12714,Echobelly,Lustra,1997,3
SOJFEOI12A58A77693,18.01571,-76.79731,Linton Kwesi Johnson,Reggae Fi Radni,1984,3
SOKXJBT12A8C1397BF,49.89942,-97.14074,Venetian Snares,P,2006,3
SOXQUTB12AB018AA31,53.34376,-6.24953,Hothouse Flowers,Spirit Of The Land,1993,2
SOWGGTZ12AB0187E45,40.71455,-74.00712,Nickodemus,Endangered Species (Outro),2006,4
SOIDXGD12A6701F6ED,50.87566,0.00093,Ed Harcourt,Little Silver Bullet,2002,3
SOOEIHH12A8151E103,28.53823,-81.37739,Jarabe De Palo,Estamos prohibidos,2007,3
SOBUBPM12AB018416C,63.22945,29.33181,Happoradio,Liittymät Kiinni,2004,3
SOZKVXO12AF72AA8F3,40.71455,-74.00712,The Bloodsugars,Uh Oh,2008,4
SOHXVWR12A8C135E5F,25.72898,-80.23742,Joe McPhee,Scorpio's Dance,1970,3
SOMQMXY12A679C8062,52.50208,-0.76588,The Chameleons UK,Time_ The End Of Time,1986,3
SOVLOYA12AB01888B8,41.11366,-73.40765,Horace Silver,The Baghdad Blues,1959,3
SOVYNOZ12A6D4F98C8,31.55379,-90.10785,J.B. Lenoir,Good Advice,1995,3
SOSCJUN12A6D4F7BC7,36.87652,-89.58828,Brand X,Euthanasia Waltz,1976,4
SOQBJYK12A8C1324D4,41.66122,-71.55587,Billy Gilman,One Voice,2000,4
SOQUIZS12AB017F997,38.8991,-77.029,Proceed,Koma,2006,2
SODYSLB12AB018C66F,37.77916,-122.42005,Joyce Cooling,South Of Market,1997,4
SOUXISQ12AB0180252,54.31407,-2.23001,Bad Manners,Black Night,1997,4
SOTBPLJ12AB017E701,42.28474,-83.38348,Insane Clown Posse,Telephone Skit 6,1996,2
SOQZCXN12A8C136525,40.71455,-74.00712,Kelley Stoltz,Something More (Album),2008,3
SOGJTJZ12A8C1441E0,40.71455,-74.00712,Kokolo,Candela,2004,2
SOHEYBR12AB017F7AA,34.82353,-89.99726,North Mississippi All Stars,Snakes In My Bushes,2001,3
SOAOIJY12A8C1370E5,39.90348,-83.43001,Bouncing Souls,Kids and Heroes,2003,4
SOAUBGR12AB0183A99,41.88415,-87.63241,Steve Goodman,City of New Orleans,1971,4
SOUHLYT12A8C13A151,35.32689,-83.80489,Ronnie Milsap,Carolina Dreams,1982,2
SOOHFSU12AB0182929,44.7272,-90.10126,Tourniquet,Servant of the Bones,2000,2
SOQJZYS12A8C13BB68,53.41961,-8.24055,Clannad,Seachrán Charn Tsiail,2003,3
SODERXY12A81C23550,51.56096,-0.23443,4hero,Morning Child (Landau Orchestra Remix),2007,2
SOCNQRF12AB0187434,55.84291,-4.41984,Paolo Nutini,Rehab,2007,3
SORZPHN12A8C13A7F4,40.71455,-74.00712,Choking Victim,In Hell,1999,4
SOCTMCU12A58A78E7F,-37.81753,144.96715,Missy Higgins,Hold Me Tight (Non-Album Track),2004,3
SOLBNWP12AB018A94F,42.47775,-70.96668,Freddy Cannon,Teen Queen Of The Week,1962,2
SODNMGV12AB0188599,41.08419,-81.51406,The Black Keys,She Said_ She Said,2002,4
SOYUOXR12AB018E33D,54.90012,-1.40848,Field Music,Each Time Is A New Time,2010,4
SORGCDY12A6D4F8101,40.65507,-73.94888,Peter Criss,Hooked On Rock 'N'  Roll,1978,3
SOAAYGU12A8C13C812,52.51607,13.37698,Jazzanova,Place In Between,2002,4
SORTXHX12A6D4F8A20,55.95415,-3.20277,The Beta Band,The Beta Band Rap,1999,4
SOKHZHN12A6D4FB8EC,53.79449,-1.54658,Pale Saints,Language Of Flowers,1990,4
SOMMGBF12A6701F71F,37.77916,-122.42005,American Music Club,How Many Six Packs Does It Take To Screw In A Light?,1994,2
SOREHOQ12A8C138AE2,40.85715,-73.85678,Terror Squad / Remy / Fat Joe,Terror Era,2004,3
SOEQKCB12A8C138B54,40.4203,-3.70577,Rosendo,Nadie sabe el paradero,2007,3
SOXNHZK12A8C1377DD,29.95369,-90.07771,Idris Muhammad,Theme For New York City,1975,3
SOPRION12A58A7DA8A,38.62774,-90.19951,Grant Green,Old Folks,1961,3
SOILCDH12A6D4F7794,41.35644,-72.09647,Cassie,Call U Out (Album Version),2006,3
SOHBRFC12A8C1337EF,-9.82491,-36.74328,Hermeto Pascoal,Nilza,1979,2
SOOINZH12AB01848C3,53.4796,-2.24881,Jega,Ionic,1996,3
SOKKRKK12A58A77E03,34.05349,-118.24532,Threshold,Stop dead,2004,3
SOTPZVK12A8C13C6EF,18.4867,-69.94049,Michel Camilo / Tomatito,Twilight Glow,2006,2
SOUNKVH12A8C13E8A5,42.44952,-83.16166,Kiln,Flycatcher,2007,3
SOXEAEL12A8C142ABC,53.40977,-2.97848,The Farm,Good Morning Sinners,1992,2
SOFVYSF12A6D4F7C59,32.33765,-90.32943,Jonezetta,The City We Live In,2006,4
SOHJHBY12A8C1344B8,36.19524,-86.51858,The Charlie Daniels Band,Everything Is Kinda All Right,1975,3
SOUDAFL12A8C13B61A,31.1689,-100.07715,Helstar,Evil Reign,1999,3
SOZODNC12A67FFB307,51.59094,-0.38049,Elton John,The North,1992,3
SOBXRDU12AB0182C48,60.17116,24.93258,The 69 Eyes,The Good_ The Bad & The Undead,2009,4
SOYRQNR12AB018FD71,62.19845,17.55142,Entombed,Night Of The Vampire,1997,4
SORXRRS12A58A7E2FB,40.85251,-73.13585,Mountain,Mississippi Queen,1970,2
SONBRTN12AB0184F10,43.64856,-79.38533,Ivana Santilli,Doin' All The Doin',1999,2
SOCHMKV12A8C144915,56.65286,-3.99667,Capercaillie,Nil Si I Ngra,1998,3
SOEUBDR12AB018986B,48.85692,2.34121,Richard Clayderman,All By Myself,2001,3
SOBSMDN12A8C1373A9,36.05084,-95.7895,Kristin Chenoweth,It Will Be Me,2005,4
SOWSBEP12A81C216E4,59.33217,18.06243,THERION,Deggial,2000,4
SOXBJBD12A8C1406A6,37.77916,-122.42005,Tea Leaf Green,Jezebel,2006,4
SOTWODS12A6D4FA509,40.86034,-74.12374,Donald Fagen,Mary Shut The Garden Door (Album Version),2006,4
SOYFPFB12A58A770F2,53.74319,-0.34592,Kingmaker,Really Scrape The Sky,1991,3
SOIMIUC12A6701BE71,30.42084,-87.21724,Gwen McCrae,It Keeps On Raining,1975,3
SOQXSDP12A6D4FC9ED,45.51179,-122.67563,Lifesavas,Selector + Fa' Show,2003,2
SOOGABY12A8C13CF2D,41.39447,-73.61689,Illya Kuryaki & The Valderramas,Jubilados Violentos,1991,2
SOMNUSA12AB0184C18,40.7174,-74.04323,Al Di Meola,Black Cat Shuffle,1982,3
SOMQCHM12AB0185056,37.77916,-122.42005,Deerhoof,Adam+Eve Connection,2003,4
SOTZUDN12AB018607C,40.71455,-74.00712,Mink DeVille,You Better Move On,1981,3
SOBACYS12A8C13D6A4,37.80506,-122.27302,Del The Funky Homosapien,Why You Wanna Get Funky...,1998,4
SOQSSTO12A6D4F6354,42.3076,-71.27951,Billy Squier,In The Dark,1981,4
SOMGOKW12A8C13D697,54.155,-7.529,Juliet Turner,People Have Names,2008,2
SOYALIK12AC909721A,49.38426,-84.75627,DL Incognito,Fall Back (Feat. Mic Check),2004,2
SOAPMUQ12A6D4F80C6,41.11366,-73.40765,Horace Silver,Calcutta Cutie (Rudy Van Gelder Edition) (1999 Digital Remaster),1965,4
SOLSWGR12A8C13CED9,39.95227,-75.16237,Canibus,So Into You,2005,2
SOSUXKJ12A8C1368A7,28.53823,-81.37739,Skrape,The Ocean,2003,3
SOTNDGD12AB0182280,59.33217,18.06243,Orup,Vackert Väder,2000,2
SOMOCEL12AC3DFB37D,53.40977,-2.97848,Hot Club De Paris,For Parties Past And Present (Acoustic),2008,2
SOXRSCM12A8C143BD8,41.38572,2.17005,Antonio Orozco / Ivan Ferreiro,Soldado 229,2006,3
SORRPHU12A58A7B477,28.02232,-81.73295,Gram Parsons,Hickory Wind (Alternate Version),2006,4
SONSDKO12AB01821AB,33.6671,-117.76505,Dustin Kensrue,This Is War,2008,3
SOWCIWZ12AB0186F1B,42.97877,-82.40336,Kim Mitchell,Called Off,1984,2
SOPFJST12A8BEEEAF7,51.50632,-0.12714,Meat Beat Manifesto,Hallucination Generation,1990,3
SOVBIXW12A6D4FB033,41.88415,-87.63241,The Paul Butterfield Blues Band,I Get Excited (Album Version),1980,2
SODNVVC12AC468B086,40.5725,-74.154,Joan Baez,The Hitchhikers' Song,1971,2
SOJHKZF12AC468D180,40.71455,-74.00712,Groove Collective,You're Stepping On My Daisy,2001,3
SOQUMZR12AB017F979,35.14968,-90.04892,The Soul Children,I'll Understand,1969,3
SOVPTHN12A81C220C3,40.71455,-74.00712,Manhattan Transfer,Clap Your Hands (LP Version),1975,2
SOVEEDB12A8C13F591,34.05349,-118.24532,Ariel Pink's Haunted Graffiti,Oceans of Weep,2002,3
SOGQXCQ12A6701D9E3,56.07043,-3.44291,Big Country,A Thousand Stars,1995,3
SOGTGYN12AB0185A8C,27.9758,-81.54106,Negative Format,Proximity Reconstruction,1998,2
SOUMASG12A58A772B1,40.71455,-74.00712,Sean Lennon,On Again Off Again,2006,3
SOOKNCK12AB017E2CD,43.32245,-3.12282,Julian Lennon,Coward Till The End ?,1986,3
SORJKZE12AF72A7453,40.0084,-75.15294,Sister Sledge,Hold Out Poppy,1985,2
SOHPRDV12A8C142265,37.77916,-122.42005,Von Iva,Birds of Prey,2009,3
SOZLIFH12A58A7C3F3,38.51213,-89.98423,Uncle Tupelo,Slate (Album Version),1993,4
SODYRKG12A8C13EEF6,35.26869,-77.5818,Parker_ Maceo,We're On The Move,1998,3
SOCRCNK12A8C133AA7,51.50632,-0.12714,White Town,Your Woman,1996,5
SOCTAYE12AB0182BC0,42.88544,-78.87846,Vincent Gallo,The Girl Of Her Dreams,1992,3
SOFMHGY12A8C13D569,62.19845,17.55142,Sahara Hotnights,Our Very Own,1999,3
SOFNFVU12AB01833C9,39.2794,-74.57555,Walter Trout,Got a Broken Heart,1997,3
SODWYWM12AB018392C,31.1689,-100.07715,Ruthie Foster,Dues Paid in Full,2009,3
SOYATSB12A6D4F6938,37.77916,-122.42005,The Vara-Tones,Drumbox,2000,2
SODJOVY12A6310E282,50.44332,-4.93986,Thirteen Senses,History,2005,4
SOUETOI12A8C13978C,40.71455,-74.00712,The Lovin' Spoonful,Full Measure,1966,3
SOMRXGA12AB01867E2,41.88415,-87.63241,Gil Scott-Heron,Me And The Devil,2010,5
SOAPMQY12AB01850E1,62.19845,17.55142,Lord Belial,Gateway To Oblivion,2007,3
SOTVMYX12A6D4F6FF7,42.32807,-83.7336,Brownsville Station,Mama Don't Allow No Parkin' (LP Version),1974,2
SOETSBS12A6D4F98FA,42.33168,-83.04792,Suzi Quatro,Four Letter Words,1979,3
SOVLFPW12AB01833BF,45.4215,-75.69189,Kathleen Edwards,Pink Emerson Radio,2005,3
SOHXTEO12A81C235A4,52.88356,-1.97406,Living In A Box,Living In A Box,1987,4
SOQNGHE12A6D4FB349,51.16418,10.45415,Funny Van Dannen,Mode,1997,2
SOOHPAE12AB017FCDD,40.71455,-74.00712,Kleeer,Taste The Music,1982,3
SOLATTH12AB0180CCA,51.50632,-0.12714,Albert Hammond,Rebecca,1973,3
SOGVHTB12A6701DF44,39.90685,-76.65859,Live,Ghost,1997,3
SOXOWUL12AB0185CBB,50.77813,6.08849,LaFee,Lieber Gott,2009,3
SOYWEHK12AB0180690,42.33168,-83.04792,Colonel Abrams,Music Is The Answer,1996,2
SOHDJQR12A8C13F557,40.65507,-73.94888,Joan As Police Woman,Christobel,2006,3
SODYYWL12A8C13FBCA,48.85692,2.34121,Richard Clayderman,Eternal Flame,2002,2
SOLLKTZ12A8AE458EB,39.74001,-104.99226,The Fray,All At Once,2005,5
SOEWEXT12A67021281,32.74863,-97.32925,Ornette Coleman,Enfant  (LP Version),1962,2
SOZBOZD12A8AE4718B,51.50632,-0.12714,Andy Abraham,Easy,2006,2
SOVELCN12A8A9D9135,51.50632,-0.12714,Minnie Driver,Coming Back To Life,2007,3
SOQTJNY12A6D4F8EA4,40.79086,-73.96644,Sophie B. Hawkins,Travelling Light (Bonus Track),1999,2
SOFCTXP12A8C13A40B,34.05349,-118.24532,STEEL PROPHET,Mirror_ Mirror,2002,2
SONPNFR12AB0181989,34.03674,-94.33942,Collin Raye,Without You (Album Version),2009,2
SOINVKS12A58A7DF24,29.95369,-90.07771,Louis Prima,Sing It Way Down Low,2002,3
SODWOYJ12A8C144111,36.71832,-4.42016,Chambao,Roe Por La Escalera,2005,3
SOHVWIP12A8C13E1EA,50.90994,-1.40732,Delays,Waste Of Space,2006,3
SOVRFWU12A8C131780,40.43831,-79.99745,Once Nothing,Columbus Wasn't Looking For America,2008,3
SOVWQAY12A8C139CD5,31.13546,-102.22414,DAN SEALS,Fool Me Once_ Fool Me Twice,1988,2
SOUKBNP12A8C137921,30.33138,-81.6558,Evergreen Terrace,High Tide Or No Tide,2007,4
SOJRWCK12A58A78980,40.71455,-74.00712,Starbreaker,Turn It Off,2005,3
SOFJFPA12AF72A62D2,40.65507,-73.94888,Killah Priest,Dead,2009,3
SOQQSUZ12A6D4F7338,46.5735,11.66351,Giorgio Moroder / Harold Faltermeyer,Love's Theme,1978,3
SOFGERX12A8C140A72,45.51179,-122.67563,Kaddisfly,Empire,2007,4
SOLXRIF12A6D4F97F2,23.62574,-101.95625,Cirque du Soleil,Entree,2004,3
SOGFSXO12AB0189BA9,31.24574,-90.45408,Ray J / Mya,Sexy,2005,2
SOKZGSU12A8C132DA8,46.99703,-120.54872,Mark Lanegan,Kingdoms Of Rain (Album),1994,3
SOHDHXK12A6D4F74EF,51.11655,-0.18703,The Cure,Screw,1985,5
SOBXTHV12A58A7B20D,34.03339,-118.1596,Los Lobos,Mas Y Mas (LP Version),1996,3
SOHGQTG12A6D4F8630,33.74831,-84.39111,ARRESTED DEVELOPMENT,WMFW (We Must Fight & Win) Fm,1994,3
SONNFNM12A81C23274,60.3907,5.33275,IMMORTAL,Demonium,2002,4
SOGZCII12A6D4F8343,51.54881,-0.0604,Martine McCutcheon,Tonight,2000,3
SOGKGHB12AB018A407,64.95014,26.06739,Lackluster,GID,2002,3
SOUCLWV12AB018943A,45.51179,-122.67563,The Epoxies,Toys,2005,3
SOGWUQO12AB01826BA,44.23153,-76.47933,Arrogant Worms,TV Weather Guy,1997,3
SOWGLPC12AAF3B485F,36.05084,-95.7895,Kristin Chenoweth,I'll Be Home For Christmas,2008,4
SOHPNQK12A6D4F96FA,37.16793,-95.84502,Stacey Q,Take That Holiday,1989,2
SOAVNAA12A58A79DDE,38.91391,-94.37517,Pat Metheny,The Night Becomes You,2008,3
SONVIZM12AB0186AA8,40.71455,-74.00712,The Chesterfields,Completely & Utterly,1986,2
SOJWNPY12A8C1406E6,53.40977,-2.97848,Ringo Starr,Waiting (1995 Digital Remaster),1970,2
SOHZEUX12A6D4F6651,42.67638,-76.82191,Enigma,Following The Sun (Album Version),2003,3
SODGSYI12A8C136598,37.16793,-95.84502,Pamela Williams,Give Me What You Got,2006,3
SOXQFVI12A8AE454E6,40.71455,-74.00712,Plasmatics,Mistress Of Taboo,1996,3
SOPWWZT12AB0189416,37.27188,-119.27023,Bradley Leighton,Sunny (Bobby Hebb),2005,2
SOCVMFZ12A8C14434B,50.94165,6.95505,Robert Babicz,Dark Flower,2008,4
SOUYLOY12A8C137DEF,40.75851,-82.5148,Switch,A Bit Patchy,2008,4
SOBZRQJ12AAA15FD73,27.9758,-81.54106,Poison The Well,Pamplemousse,2009,3
SOODRHW12A6310D8FF,51.50632,-0.12714,Pet Shop Boys,Rent,1987,4
SOORIUF12AB0180C25,35.59051,-78.73713,Steve Cropper,Land Of 1000 Dances,1971,2
SOEXXDY12A8C13F37A,30.9742,-91.52382,G4,Bohemian Rhapsody,2005,3
SOCUINF12A58A7A9F6,34.05349,-118.24532,Flogging Molly,Rebels of the Sacred Heart,2001,5
SOKELZF12A6D4F951A,50.3758,-4.13689,Matthew Jay,Become Yourself,2001,2
SOQOHJM12A8C13637C,43.1555,-77.61603,Lydia Lunch,I Wish& I Wish,1989,3
SOSAWFO12A6D4F7C38,48.85692,2.34121,Camille,Janine 1,2005,4
SOFRBIA12A6701C7AD,33.83276,-117.91572,No Doubt,A Little Something Refreshing,1992,3
SORDKFN12A8AE457F4,39.55792,-7.84481,Rafael Toral,Rdm,2002,1
SOBLBDO12AB0181641,40.71455,-74.00712,Tackhead,Hard Left,1995,3
SODNEEV12AC4686DE0,46.91008,-98.70853,Peggy Lee,But Beautiful,1995,3
SOCDGFO12A58A7A02A,58.26266,12.95348,Bombshell Rocks,Seen It All,2000,3
SOYRVRM12A58A7DA53,37.27188,-119.27023,Guardian,Curiosity Killed The Cat (LP Version),1993,3
SOIORCF12A8C13D59E,42.46066,-83.13142,Ron Carter,Gone,2006,3
SOWMIOX12A67ADE8A3,40.71455,-74.00712,Merauder,Bluetality,2003,3
SONZOSU12A8C13F0FF,40.99471,-77.60454,Natalie Walker,Monarch,2008,3
SOAMUWW12A58A7971E,46.76921,-71.29176,Jean Leclerc,Jarneton et Gringoire,2006,2
SOJUJML12A6D4FC046,51.50632,-0.12714,Minnie Driver,Beloved,2007,3
SOZRSWC12A6D4F8348,50.80401,-1.08728,Julia Fordham,East West,1997,2
SOGFVUG12AAF3B5191,-14.24292,-54.38783,Aghast View,Groundzero (Original Version),1999,2
SOQQNBE12A58A7CFDB,53.34376,-6.24953,Ronan Keating,Time For Love,2002,3
SOWEBCT12AB0180341,18.11526,-77.27348,Jackie Edwards,All Shook Up,2006,2
SOSWTVM12AB01834EF,55.67631,12.56935,Outlandish,Let Off Some Steam,2009,4
SOHZSYZ12A8C13DA55,38.62666,-88.94561,Bill Laswell,Tale of the caliph Hakem,1999,3
SOZLKRH12AB0189DB4,51.2301,-2.31589,Eat Static,The First Revelation,2002,4
SOVPUIO12AB01872E4,34.05349,-118.24532,Aesthetic Perfection,Fix,2005,4
SONESKB12A6701FAA8,51.50632,-0.12714,Stereolab,Hallucinex (LP Version),2001,3
SOLZFUX12A58A7A56E,29.42449,-98.49462,Butthole Surfers,Strangers Die Everyday,1986,4
SODSRAW12A8C14465A,37.27188,-119.27023,The Sound Of Animals Fighting,Lude,2008,3
SOIXHUQ12A8C134E27,36.19524,-86.51858,The Charlie Daniels Band,Money,1980,2
SOYRCRP12AB018B2A8,62.19845,17.55142,Misery Loves Co,I Swallow,1994,3
SOXEQSP12A6D4F7FBD,50.94224,-2.64647,PJ Harvey,Oh My Lover,1992,4
SORZJNJ12AB01806EF,40.5725,-74.154,Joan Baez,Pal Of Mine,1961,2
SOYEWBP12A8AE46FD7,40.71455,-74.00712,Tommy Flanagan,Mark One,1987,3
SOQRCQB12A8C143310,48.85692,2.34121,Ottawan,Shalala Song,1980,3
SOSCMSY12A8C13C1E9,40.65507,-73.94888,Matisyahu,Warrior,2004,4
SOJQAYB12A8C13CFC1,32.58507,-89.87374,Smokie,Now You Think You Know,1990,3
SOMAVPM12AB0188A99,55.95415,-3.20277,Ballboy,We Are Past Our Dancing Days,2004,3
SOSIXSV12AB0186504,31.3893,35.36124,Kukan Dub Lagan,The Bells Of Burma,2004,3
SORZHQE12A8C13E49A,52.47859,-1.9086,Electric Light Orchestra,Sweet Is The Night,1977,4
SOEBQBO12A6D4F66C4,54.31407,-2.23001,Robbie Williams,Advertising Space,2005,4
SOOZWGC12AB018CD04,-24.9162,133.39311,Fiona Boyes,Got My Eye On You,2009,2
SOODRWC12A8AE4893E,53.89128,-68.43114,Vulgaires Machins,Pop-Corn,2000,2
SOMQHJK12A6D4F7802,52.88356,-1.97406,Hawkwind,Mirror Of Illusion (1996 Digital Remaster),1970,2
SOVVITW12A8C146BD0,37.80506,-122.27302,Del Tha Funkee Homosapien,Ya Lil' Crumbsnatchers (LP Version),1991,4
SOGVNLY12A8AE45EC7,51.70308,-3.04319,James Dean Bradfield,An English Gentleman,2006,4
SOGAFTB12A8C131B25,41.66122,-71.55587,Les Dudek,Lady You're Nasty,1977,2
SOPUUJF12A8C133D2C,40.41329,-84.77656,Rick Derringer,It's Raining,1973,2
SODEHBF12A8C13750D,52.94922,-1.14392,Seachange,The Key,2006,2
SOJDNTV12A6D4F7E68,40.43831,-79.99745,Stanley Turrentine,Fool On The Hill,1969,2
SOZVOJC12AB0184EBD,42.33168,-83.04792,The Contours,Come On And Be Mine,2005,2
SOUUOWQ12A6D4FA93B,40.79263,-73.80817,Jesse Malin,Bastards Of Young,2007,3
SOOLCWH12AB0185691,41.08419,-81.51406,The Black Keys,Till I Get My Way,2004,4
SOXGDQO12AB017F53C,39.74001,-104.99226,Ghost Buffalo,Brother,2008,2
SOHFIGZ12AB018C0B7,25.72898,-80.23742,The Postmarks,Run Away Love,2010,4
SOKLDDW12AB018365B,49.20639,-122.90963,Devin Townsend,Canada,2001,4
SOISCKG12A8C13212D,38.6157,-76.90246,Good Charlotte,Seasons,2000,4
SOTCNYH12A8C140ABE,41.60441,-73.97225,Fredo Viola,Puss,2009,3
SOZQIEQ12A58A7AB6D,29.95369,-90.07771,The Dirty Dozen Brass Band,Georgia Swing,1993,3
SORVBUA12AB0183D97,32.5313,-117.03817,Julieta Venegas,Salvavidas,2000,4
SOHYWQA12A8C139F65,51.50632,-0.12714,Elvis Costello & The Attractions,Green Shirt,1979,3
SOOIJKO12AB0184820,34.05349,-118.24532,Armored Saint,Loose Cannon,2010,3
SOFRWNX12A8A9D5EAD,46.6621,-122.96462,Ralph Towner,I [Five Glimpses],2006,2
SOOTQVO12AF72AC9E0,46.71067,1.71819,Dark Sanctuary,Ouverture,2005,4
SOSRWMV12A8C13C187,51.50632,-0.12714,Stereo MCs,Paradise,2005,3
SOECMVP12AB018584E,42.33168,-83.04792,The White Stripes,Prickly Thorn_ But Sweetly Worn (Live),2010,3
SOYBOHL12AB0182DF5,35.83073,-85.97874,November,Starka tillsammans,1972,3
SOFITSI12AB017D1FA,31.5909,130.65604,SEX MACHINEGUNS,JACKY,2008,3
SOERMXX12AB017E45E,51.47288,-3.14127,Shirley Bassey,Vehicle,1971,2
SOMNJFU12A81C223A8,51.16418,10.45415,Die Apokalyptischen Reiter,Dance With Me,1999,3
SOHYSLG12A6D4FB6AF,51.50632,-0.12714,Scritti Politti,Flesh And Blood (Album Version),1985,2
SOANFQB12A6D4F8A26,39.55792,-7.84481,GNR,Tu Não Existes,2002,2
SOLKKFC12A8C14363E,49.38426,-84.75627,Afternoons in Stereo,Saarinen in Dub,2010,3
SOUCQEC12A8C14105A,39.75911,-84.19444,Lou Barlow,Goodnight Unknown,2009,3
SOKDJYC12AB0181EA5,46.5735,11.66351,Giorgio Moroder,Evolution,1985,3
SOPMUGX12A8C14087D,40.71455,-74.00712,Gonzalez,Saoco,2000,2
SOYXISW12A6D4FA3B3,55.8578,-4.24251,Aztec Camera,Get Outta London,1990,3
SOUKRMN12AC3DF4C88,-32.83102,147.31906,The Go Set,North of the 23,2009,3
SOXHEBR12A6D4F97EE,23.62574,-101.95625,Cirque du Soleil,Incantation,1996,3
SOZTDEY12AB018CC29,43.64856,-79.38533,Solvent,Loss For Words,2010,3
